[{"stationName":"Abbey Wood","lat":51.490719,"long":0.120343,"crsCode":"ABW","constituentCountry":"england"},{"stationName":"Aber","lat":51.575363,"long":-3.23089,"crsCode":"ABE","constituentCountry":"wales"},{"stationName":"Abercynon","lat":51.64262,"long":-3.329549,"crsCode":"ACY","constituentCountry":"wales"},{"stationName":"Aberdare","lat":51.715019,"long":-3.44313,"crsCode":"ABA","constituentCountry":"wales"},{"stationName":"Aberdeen","lat":57.143127,"long":-2.097464,"crsCode":"ABD","constituentCountry":"scotland"},{"stationName":"Aberdour","lat":56.054646,"long":-3.300575,"crsCode":"AUR","constituentCountry":"scotland"},{"stationName":"Aberdovey","lat":52.543934,"long":-4.057118,"crsCode":"AVY","constituentCountry":"wales"},{"stationName":"Abererch","lat":52.898567,"long":-4.37423,"crsCode":"ABH","constituentCountry":"wales"},{"stationName":"Abergavenny","lat":51.81665,"long":-3.009679,"crsCode":"AGV","constituentCountry":"wales"},{"stationName":"Abergele & Pensarn","lat":53.294758,"long":-3.581343,"crsCode":"AGL","constituentCountry":"wales"},{"stationName":"Aberystwyth","lat":52.414017,"long":-4.081946,"crsCode":"AYW","constituentCountry":"wales"},{"stationName":"Accrington","lat":53.753193,"long":-2.370016,"crsCode":"ACR","constituentCountry":"england"},{"stationName":"Achanalt","lat":57.609921,"long":-4.914243,"crsCode":"AAT","constituentCountry":"scotland"},{"stationName":"Achnasheen","lat":57.579205,"long":-5.072421,"crsCode":"ACN","constituentCountry":"scotland"},{"stationName":"Achnashellach","lat":57.482697,"long":-5.333001,"crsCode":"ACH","constituentCountry":"scotland"},{"stationName":"Acklington","lat":55.307129,"long":-1.651816,"crsCode":"ACK","constituentCountry":"england"},{"stationName":"Acle","lat":52.634647,"long":1.543981,"crsCode":"ACL","constituentCountry":"england"},{"stationName":"Acocks Green","lat":52.449291,"long":-1.81898,"crsCode":"ACG","constituentCountry":"england"},{"stationName":"Acton Bridge","lat":53.265961,"long":-2.602689,"crsCode":"ACB","constituentCountry":"england"},{"stationName":"Acton Central","lat":51.508717,"long":-0.263601,"crsCode":"ACC","constituentCountry":"england"},{"stationName":"Acton Main Line","lat":51.516865,"long":-0.26762,"crsCode":"AML","constituentCountry":"england"},{"stationName":"Adderley Park","lat":52.483505,"long":-1.854184,"crsCode":"ADD","constituentCountry":"england"},{"stationName":"Addiewell","lat":55.843449,"long":-3.60655,"crsCode":"ADW","constituentCountry":"scotland"},{"stationName":"Addlestone","lat":51.372414,"long":-0.48571,"crsCode":"ASN","constituentCountry":"england"},{"stationName":"Adisham","lat":51.241352,"long":1.199277,"crsCode":"ADM","constituentCountry":"england"},{"stationName":"Adlington (Cheshire)","lat":53.319542,"long":-2.133571,"crsCode":"ADC","constituentCountry":"england"},{"stationName":"Adlington (Lancashire)","lat":53.612926,"long":-2.603084,"crsCode":"ADL","constituentCountry":"england"},{"stationName":"Adwick","lat":53.572994,"long":-1.181465,"crsCode":"AWK","constituentCountry":"england"},{"stationName":"Aigburth","lat":53.364614,"long":-2.927041,"crsCode":"AIG","constituentCountry":"england"},{"stationName":"Ainsdale","lat":53.601818,"long":-3.042691,"crsCode":"ANS","constituentCountry":"england"},{"stationName":"Aintree","lat":53.473995,"long":-2.956687,"crsCode":"AIN","constituentCountry":"england"},{"stationName":"Airbles","lat":55.782504,"long":-3.994447,"crsCode":"AIR","constituentCountry":"scotland"},{"stationName":"Airdrie","lat":55.864029,"long":-3.982952,"crsCode":"ADR","constituentCountry":"scotland"},{"stationName":"Albany Park","lat":51.435745,"long":0.126427,"crsCode":"AYP","constituentCountry":"england"},{"stationName":"Albrighton","lat":52.637917,"long":-2.268913,"crsCode":"ALB","constituentCountry":"england"},{"stationName":"Alderley Edge","lat":53.303762,"long":-2.236812,"crsCode":"ALD","constituentCountry":"england"},{"stationName":"Aldermaston","lat":51.402047,"long":-1.136972,"crsCode":"AMT","constituentCountry":"england"},{"stationName":"Aldershot","lat":51.246151,"long":-0.760657,"crsCode":"AHT","constituentCountry":"england"},{"stationName":"Aldrington","lat":50.836601,"long":-0.182151,"crsCode":"AGT","constituentCountry":"england"},{"stationName":"Alexandra Palace","lat":51.598225,"long":-0.120129,"crsCode":"AAP","constituentCountry":"england"},{"stationName":"Alexandra Parade","lat":55.863724,"long":-4.211465,"crsCode":"AXP","constituentCountry":"scotland"},{"stationName":"Alexandria","lat":55.98513,"long":-4.577534,"crsCode":"ALX","constituentCountry":"scotland"},{"stationName":"Alfreton","lat":53.100414,"long":-1.369689,"crsCode":"ALF","constituentCountry":"england"},{"stationName":"Allens West","lat":54.524128,"long":-1.363418,"crsCode":"ALW","constituentCountry":"england"},{"stationName":"Alloa","lat":56.1179,"long":-3.7872,"crsCode":"ALO","constituentCountry":"scotland"},{"stationName":"Alness","lat":57.694477,"long":-4.249743,"crsCode":"ASS","constituentCountry":"scotland"},{"stationName":"Alnmouth","lat":55.392456,"long":-1.636858,"crsCode":"ALM","constituentCountry":"england"},{"stationName":"Alresford","lat":51.853828,"long":0.997114,"crsCode":"ALR","constituentCountry":"england"},{"stationName":"Alsager","lat":53.093054,"long":-2.29861,"crsCode":"ASG","constituentCountry":"england"},{"stationName":"Althorne","lat":51.647526,"long":0.753603,"crsCode":"ALN","constituentCountry":"england"},{"stationName":"Althorpe","lat":53.585262,"long":-0.732558,"crsCode":"ALP","constituentCountry":"england"},{"stationName":"Altnabreac","lat":58.388439,"long":-3.705279,"crsCode":"ABC","constituentCountry":"scotland"},{"stationName":"Alton","lat":51.151947,"long":-0.967658,"crsCode":"AON","constituentCountry":"england"},{"stationName":"Altrincham","lat":53.3874,"long":-2.347212,"crsCode":"ALT","constituentCountry":"england"},{"stationName":"Alvechurch","lat":52.346607,"long":-1.967854,"crsCode":"ALV","constituentCountry":"england"},{"stationName":"Ambergate","lat":53.060501,"long":-1.4807,"crsCode":"AMB","constituentCountry":"england"},{"stationName":"Amberley","lat":50.896507,"long":-0.542446,"crsCode":"AMY","constituentCountry":"england"},{"stationName":"Amersham","lat":51.67439,"long":-0.60613,"crsCode":"AMR","constituentCountry":"england"},{"stationName":"Ammanford","lat":51.795933,"long":-3.996783,"crsCode":"AMF","constituentCountry":"wales"},{"stationName":"Ancaster","lat":52.987888,"long":-0.535596,"crsCode":"ANC","constituentCountry":"england"},{"stationName":"Anderston","lat":55.859924,"long":-4.271969,"crsCode":"AND","constituentCountry":"scotland"},{"stationName":"Andover","lat":51.212048,"long":-1.493167,"crsCode":"ADV","constituentCountry":"england"},{"stationName":"Anerley","lat":51.41163,"long":-0.064348,"crsCode":"ANZ","constituentCountry":"england"},{"stationName":"Angmering","lat":50.816704,"long":-0.489559,"crsCode":"ANG","constituentCountry":"england"},{"stationName":"Annan","lat":54.98386,"long":-3.262603,"crsCode":"ANN","constituentCountry":"scotland"},{"stationName":"Anniesland","lat":55.889553,"long":-4.321684,"crsCode":"ANL","constituentCountry":"scotland"},{"stationName":"Ansdell & Fairhaven","lat":53.741558,"long":-2.993077,"crsCode":"AFV","constituentCountry":"england"},{"stationName":"Apperley Bridge","lat":53.84138,"long":-1.703065,"crsCode":"APY","constituentCountry":"england"},{"stationName":"Appleby","lat":54.58032,"long":-2.486692,"crsCode":"APP","constituentCountry":"england"},{"stationName":"Appledore (Kent)","lat":51.032623,"long":0.816826,"crsCode":"APD","constituentCountry":"england"},{"stationName":"Appleford","lat":51.639562,"long":-1.242375,"crsCode":"APF","constituentCountry":"england"},{"stationName":"Appley Bridge","lat":53.579029,"long":-2.718906,"crsCode":"APB","constituentCountry":"england"},{"stationName":"Apsley","lat":51.732712,"long":-0.463568,"crsCode":"APS","constituentCountry":"england"},{"stationName":"Arbroath","lat":56.559628,"long":-2.588928,"crsCode":"ARB","constituentCountry":"scotland"},{"stationName":"Ardgay","lat":57.881119,"long":-4.362604,"crsCode":"ARD","constituentCountry":"scotland"},{"stationName":"Ardlui","lat":56.302025,"long":-4.721712,"crsCode":"AUI","constituentCountry":"scotland"},{"stationName":"Ardrossan Harbour","lat":55.640854,"long":-4.823461,"crsCode":"ADS","constituentCountry":"scotland"},{"stationName":"Ardrossan South Beach","lat":55.640495,"long":-4.799593,"crsCode":"ASB","constituentCountry":"scotland"},{"stationName":"Ardrossan Town","lat":55.639313,"long":-4.812212,"crsCode":"ADN","constituentCountry":"scotland"},{"stationName":"Ardwick","lat":53.47134,"long":-2.213893,"crsCode":"ADK","constituentCountry":"england"},{"stationName":"Argyle Street","lat":55.855938,"long":-4.244574,"crsCode":"AGS","constituentCountry":"scotland"},{"stationName":"Arisaig","lat":56.912617,"long":-5.839141,"crsCode":"ARG","constituentCountry":"scotland"},{"stationName":"Arlesey","lat":52.025938,"long":-0.266178,"crsCode":"ARL","constituentCountry":"england"},{"stationName":"Armadale","lat":55.88639,"long":-3.68504,"crsCode":"ARM","constituentCountry":"scotland"},{"stationName":"Armathwaite","lat":54.809611,"long":-2.77209,"crsCode":"AWT","constituentCountry":"england"},{"stationName":"Arnside","lat":54.202114,"long":-2.827783,"crsCode":"ARN","constituentCountry":"england"},{"stationName":"Arram","lat":53.884567,"long":-0.426833,"crsCode":"ARR","constituentCountry":"england"},{"stationName":"Arrochar & Tarbet","lat":56.204021,"long":-4.722822,"crsCode":"ART","constituentCountry":"scotland"},{"stationName":"Arundel","lat":50.848003,"long":-0.546796,"crsCode":"ARU","constituentCountry":"england"},{"stationName":"Ascot","lat":51.406185,"long":-0.675827,"crsCode":"ACT","constituentCountry":"england"},{"stationName":"Ascott-Under-Wychwood","lat":51.867376,"long":-1.564136,"crsCode":"AUW","constituentCountry":"england"},{"stationName":"Ash","lat":51.249222,"long":-0.711856,"crsCode":"ASH","constituentCountry":"england"},{"stationName":"Ash Vale","lat":51.272709,"long":-0.721247,"crsCode":"AHV","constituentCountry":"england"},{"stationName":"Ashburys","lat":53.471761,"long":-2.194991,"crsCode":"ABY","constituentCountry":"england"},{"stationName":"Ashchurch for Tewkesbury","lat":51.997158,"long":-2.10921,"crsCode":"ASC","constituentCountry":"england"},{"stationName":"Ashfield","lat":55.889214,"long":-4.2433,"crsCode":"ASF","constituentCountry":"scotland"},{"stationName":"Ashford International","lat":51.14335294,"long":0.875167251,"crsCode":"AFK","constituentCountry":"england"},{"stationName":"Ashford Surrey","lat":51.436047,"long":-0.469229,"crsCode":"AFS","constituentCountry":"england"},{"stationName":"Ashington","lat":55.182,"long":-1.573,"crsCode":"ASL","constituentCountry":"england"},{"stationName":"Ashley","lat":53.355984,"long":-2.341029,"crsCode":"ASY","constituentCountry":"england"},{"stationName":"Ashley Down","lat":51.4788,"long":-2.5767,"crsCode":"ASD","constituentCountry":"england"},{"stationName":"Ashtead","lat":51.317822,"long":-0.308126,"crsCode":"AHD","constituentCountry":"england"},{"stationName":"Ashton-Under-Lyne","lat":53.491264,"long":-2.093415,"crsCode":"AHN","constituentCountry":"england"},{"stationName":"Ashurst Kent","lat":51.128601,"long":0.152298,"crsCode":"AHS","constituentCountry":"england"},{"stationName":"Ashurst New Forest","lat":50.888865,"long":-1.525097,"crsCode":"ANF","constituentCountry":"england"},{"stationName":"Ashwell & Morden","lat":52.030586,"long":-0.10934,"crsCode":"AWM","constituentCountry":"england"},{"stationName":"Askam","lat":54.189049,"long":-3.204545,"crsCode":"ASK","constituentCountry":"england"},{"stationName":"Aslockton","lat":52.951351,"long":-0.898541,"crsCode":"ALK","constituentCountry":"england"},{"stationName":"Aspatria","lat":54.759338,"long":-3.331752,"crsCode":"ASP","constituentCountry":"england"},{"stationName":"Aspley Guise","lat":52.020725,"long":-0.631519,"crsCode":"APG","constituentCountry":"england"},{"stationName":"Aston","lat":52.505104,"long":-1.871788,"crsCode":"AST","constituentCountry":"england"},{"stationName":"Atherstone","lat":52.578949,"long":-1.552808,"crsCode":"ATH","constituentCountry":"england"},{"stationName":"Atherton","lat":53.528817,"long":-2.478683,"crsCode":"ATN","constituentCountry":"england"},{"stationName":"Attadale","lat":57.394871,"long":-5.456549,"crsCode":"ATT","constituentCountry":"scotland"},{"stationName":"Attenborough","lat":52.906322,"long":-1.231262,"crsCode":"ATB","constituentCountry":"england"},{"stationName":"Attleborough","lat":52.514214,"long":1.022719,"crsCode":"ATL","constituentCountry":"england"},{"stationName":"Auchinleck","lat":55.47031,"long":-4.295389,"crsCode":"AUK","constituentCountry":"scotland"},{"stationName":"Audley End","lat":52.004398,"long":0.20719,"crsCode":"AUD","constituentCountry":"england"},{"stationName":"Aughton Park","lat":53.55447,"long":-2.895095,"crsCode":"AUG","constituentCountry":"england"},{"stationName":"Aviemore","lat":57.18914,"long":-3.828348,"crsCode":"AVM","constituentCountry":"scotland"},{"stationName":"Avoncliff","lat":51.339596,"long":-2.281342,"crsCode":"AVF","constituentCountry":"england"},{"stationName":"Avonmouth","lat":51.500194,"long":-2.699332,"crsCode":"AVN","constituentCountry":"england"},{"stationName":"Axminster","lat":50.778976,"long":-3.005613,"crsCode":"AXM","constituentCountry":"england"},{"stationName":"Aylesbury","lat":51.813868,"long":-0.815048,"crsCode":"AYS","constituentCountry":"england"},{"stationName":"Aylesbury Vale Parkway","lat":51.8327,"long":-0.8623,"crsCode":"AVP","constituentCountry":"england"},{"stationName":"Aylesford","lat":51.301384,"long":0.465964,"crsCode":"AYL","constituentCountry":"england"},{"stationName":"Aylesham","lat":51.227185,"long":1.209682,"crsCode":"AYH","constituentCountry":"england"},{"stationName":"Ayr","lat":55.458248,"long":-4.626878,"crsCode":"AYR","constituentCountry":"scotland"},{"stationName":"Bache","lat":53.209312,"long":-2.892386,"crsCode":"BAC","constituentCountry":"england"},{"stationName":"Baglan","lat":51.61549,"long":-3.811182,"crsCode":"BAJ","constituentCountry":"wales"},{"stationName":"Bagshot","lat":51.364964,"long":-0.688501,"crsCode":"BAG","constituentCountry":"england"},{"stationName":"Baildon","lat":53.849682,"long":-1.753717,"crsCode":"BLD","constituentCountry":"england"},{"stationName":"Baillieston","lat":55.844761,"long":-4.11454,"crsCode":"BIO","constituentCountry":"scotland"},{"stationName":"Balcombe","lat":51.05624,"long":-0.137881,"crsCode":"BAB","constituentCountry":"england"},{"stationName":"Baldock","lat":51.993156,"long":-0.188106,"crsCode":"BDK","constituentCountry":"england"},{"stationName":"Balham","lat":51.443169,"long":-0.152403,"crsCode":"BAL","constituentCountry":"england"},{"stationName":"Balloch Central","lat":56.002983,"long":-4.583539,"crsCode":"BHC","constituentCountry":"scotland"},{"stationName":"Balmossie","lat":56.475548,"long":-2.83764,"crsCode":"BSI","constituentCountry":"scotland"},{"stationName":"Bamber Bridge","lat":53.726772,"long":-2.660793,"crsCode":"BMB","constituentCountry":"england"},{"stationName":"Bamford","lat":53.338985,"long":-1.689078,"crsCode":"BAM","constituentCountry":"england"},{"stationName":"Banavie","lat":56.84338,"long":-5.095477,"crsCode":"BNV","constituentCountry":"scotland"},{"stationName":"Banbury","lat":52.060925,"long":-1.327541,"crsCode":"BAN","constituentCountry":"england"},{"stationName":"Bangor (Gwynedd)","lat":53.222902,"long":-4.135505,"crsCode":"BNG","constituentCountry":"wales"},{"stationName":"Bank Hall","lat":53.437357,"long":-2.987509,"crsCode":"BAH","constituentCountry":"england"},{"stationName":"Banstead","lat":51.329922,"long":-0.214384,"crsCode":"BAD","constituentCountry":"england"},{"stationName":"Barassie","lat":55.5611,"long":-4.651181,"crsCode":"BSS","constituentCountry":"scotland"},{"stationName":"Bardon Mill","lat":54.974636,"long":-2.349922,"crsCode":"BLL","constituentCountry":"england"},{"stationName":"Bare Lane","lat":54.074473,"long":-2.835331,"crsCode":"BAR","constituentCountry":"england"},{"stationName":"Bargeddie","lat":55.851776,"long":-4.071789,"crsCode":"BGI","constituentCountry":"scotland"},{"stationName":"Bargoed","lat":51.692268,"long":-3.229717,"crsCode":"BGD","constituentCountry":"wales"},{"stationName":"Barking","lat":51.539982,"long":0.080804,"crsCode":"BKG","constituentCountry":"england"},{"stationName":"Barking Riverside","lat":51.519108,"long":0.114764,"crsCode":"BGV","constituentCountry":"england"},{"stationName":"Barlaston","lat":52.942856,"long":-2.168118,"crsCode":"BRT","constituentCountry":"england"},{"stationName":"Barming","lat":51.284904,"long":0.479428,"crsCode":"BMG","constituentCountry":"england"},{"stationName":"Barmouth","lat":52.72287,"long":-4.056641,"crsCode":"BRM","constituentCountry":"wales"},{"stationName":"Barnehurst","lat":51.464798,"long":0.160885,"crsCode":"BNH","constituentCountry":"england"},{"stationName":"Barnes","lat":51.467014,"long":-0.240711,"crsCode":"BNS","constituentCountry":"england"},{"stationName":"Barnes Bridge","lat":51.471676,"long":-0.252051,"crsCode":"BNI","constituentCountry":"england"},{"stationName":"Barnetby","lat":53.574219,"long":-0.409679,"crsCode":"BTB","constituentCountry":"england"},{"stationName":"Barnham","lat":50.831135,"long":-0.639627,"crsCode":"BAA","constituentCountry":"england"},{"stationName":"Barnhill","lat":55.877895,"long":-4.223463,"crsCode":"BNL","constituentCountry":"scotland"},{"stationName":"Barnsley","lat":53.553978,"long":-1.477688,"crsCode":"BNY","constituentCountry":"england"},{"stationName":"Barnstaple","lat":51.073532,"long":-4.064032,"crsCode":"BNP","constituentCountry":"england"},{"stationName":"Barnt Green","lat":52.361328,"long":-1.994098,"crsCode":"BTG","constituentCountry":"england"},{"stationName":"Barrhead","lat":55.804535,"long":-4.396411,"crsCode":"BRR","constituentCountry":"scotland"},{"stationName":"Barrhill","lat":55.097031,"long":-4.781834,"crsCode":"BRL","constituentCountry":"scotland"},{"stationName":"Barrow Haven","lat":53.697128,"long":-0.391427,"crsCode":"BAV","constituentCountry":"england"},{"stationName":"Barrow Upon Soar","lat":52.750244,"long":-1.14956,"crsCode":"BWS","constituentCountry":"england"},{"stationName":"Barrow-In-Furness","lat":54.118879,"long":-3.22614,"crsCode":"BIF","constituentCountry":"england"},{"stationName":"Barry","lat":51.396729,"long":-3.285023,"crsCode":"BRY","constituentCountry":"wales"},{"stationName":"Barry Docks","lat":51.402393,"long":-3.260749,"crsCode":"BYD","constituentCountry":"wales"},{"stationName":"Barry Island","lat":51.392361,"long":-3.273405,"crsCode":"BYI","constituentCountry":"wales"},{"stationName":"Barry Links","lat":56.493206,"long":-2.745444,"crsCode":"BYL","constituentCountry":"scotland"},{"stationName":"Barton-On-Humber","lat":53.688824,"long":-0.443233,"crsCode":"BAU","constituentCountry":"england"},{"stationName":"Basildon","lat":51.568672,"long":0.457309,"crsCode":"BSO","constituentCountry":"england"},{"stationName":"Basingstoke","lat":51.26804,"long":-1.086896,"crsCode":"BSK","constituentCountry":"england"},{"stationName":"Bat & Ball","lat":51.289703,"long":0.194258,"crsCode":"BBL","constituentCountry":"england"},{"stationName":"Bath Spa","lat":51.378059,"long":-2.356302,"crsCode":"BTH","constituentCountry":"england"},{"stationName":"Bathgate","lat":55.898678,"long":-3.644019,"crsCode":"BHG","constituentCountry":"scotland"},{"stationName":"Batley","lat":53.709129,"long":-1.622734,"crsCode":"BTL","constituentCountry":"england"},{"stationName":"Battersby","lat":54.457687,"long":-1.092945,"crsCode":"BTT","constituentCountry":"england"},{"stationName":"Battersea Park","lat":51.477272,"long":-0.148151,"crsCode":"BAK","constituentCountry":"england"},{"stationName":"Battle","lat":50.91312,"long":0.495169,"crsCode":"BAT","constituentCountry":"england"},{"stationName":"Battlesbridge","lat":51.624805,"long":0.565826,"crsCode":"BLB","constituentCountry":"england"},{"stationName":"Bayford","lat":51.758808,"long":-0.096074,"crsCode":"BAY","constituentCountry":"england"},{"stationName":"Beaconsfield","lat":51.611141,"long":-0.643644,"crsCode":"BCF","constituentCountry":"england"},{"stationName":"Bearley","lat":52.244252,"long":-1.750259,"crsCode":"BER","constituentCountry":"england"},{"stationName":"Bearsden","lat":55.917202,"long":-4.332945,"crsCode":"BRN","constituentCountry":"scotland"},{"stationName":"Bearsted","lat":51.275589,"long":0.57786,"crsCode":"BSD","constituentCountry":"england"},{"stationName":"Beasdale","lat":56.899624,"long":-5.763864,"crsCode":"BSL","constituentCountry":"scotland"},{"stationName":"Beaulieu Park","lat":51.7574,"long":0.5187,"crsCode":"BPA","constituentCountry":"england"},{"stationName":"Beaulieu Road","lat":50.854206,"long":-1.505586,"crsCode":"BEU","constituentCountry":"england"},{"stationName":"Beauly","lat":57.478,"long":-4.4698,"crsCode":"BEL","constituentCountry":"scotland"},{"stationName":"Bebington","lat":53.357651,"long":-3.003659,"crsCode":"BEB","constituentCountry":"england"},{"stationName":"Beccles","lat":52.458481,"long":1.569547,"crsCode":"BCC","constituentCountry":"england"},{"stationName":"Beckenham Hill","lat":51.424767,"long":-0.016497,"crsCode":"BEC","constituentCountry":"england"},{"stationName":"Beckenham Junction","lat":51.411446,"long":-0.027144,"crsCode":"BKJ","constituentCountry":"england"},{"stationName":"Bedford","lat":52.136175,"long":-0.47945,"crsCode":"BDM","constituentCountry":"england"},{"stationName":"Bedford St Johns","lat":52.129299,"long":-0.467348,"crsCode":"BSJ","constituentCountry":"england"},{"stationName":"Bedhampton","lat":50.853638,"long":-0.996989,"crsCode":"BDH","constituentCountry":"england"},{"stationName":"Bedminster","lat":51.440037,"long":-2.594184,"crsCode":"BMT","constituentCountry":"england"},{"stationName":"Bedworth","lat":52.479133,"long":-1.46749,"crsCode":"BEH","constituentCountry":"england"},{"stationName":"Bedwyn","lat":51.379715,"long":-1.599077,"crsCode":"BDW","constituentCountry":"england"},{"stationName":"Beeston","lat":52.920551,"long":-1.207211,"crsCode":"BEE","constituentCountry":"england"},{"stationName":"Bekesbourne","lat":51.261051,"long":1.136125,"crsCode":"BKS","constituentCountry":"england"},{"stationName":"Belle Vue","lat":53.462181,"long":-2.180809,"crsCode":"BLV","constituentCountry":"england"},{"stationName":"Bellgrove","lat":55.857182,"long":-4.22547,"crsCode":"BLG","constituentCountry":"scotland"},{"stationName":"Bellingham","lat":51.433826,"long":-0.020421,"crsCode":"BGM","constituentCountry":"england"},{"stationName":"Bellshill","lat":55.816605,"long":-4.025222,"crsCode":"BLH","constituentCountry":"scotland"},{"stationName":"Belmont","lat":51.344086,"long":-0.199471,"crsCode":"BLM","constituentCountry":"england"},{"stationName":"Belper","lat":53.024555,"long":-1.482622,"crsCode":"BLP","constituentCountry":"england"},{"stationName":"Beltring","lat":51.204651,"long":0.403518,"crsCode":"BEG","constituentCountry":"england"},{"stationName":"Belvedere","lat":51.491936,"long":0.152088,"crsCode":"BVD","constituentCountry":"england"},{"stationName":"Bempton","lat":54.128296,"long":-0.180389,"crsCode":"BEM","constituentCountry":"england"},{"stationName":"Ben Rhydding","lat":53.926167,"long":-1.797429,"crsCode":"BEY","constituentCountry":"england"},{"stationName":"Benfleet","lat":51.543964,"long":0.561273,"crsCode":"BEF","constituentCountry":"england"},{"stationName":"Bentham","lat":54.115791,"long":-2.510918,"crsCode":"BEN","constituentCountry":"england"},{"stationName":"Bentley (Hampshire)","lat":51.180695,"long":-0.868287,"crsCode":"BTY","constituentCountry":"england"},{"stationName":"Bentley (South Yorkshire)","lat":53.542865,"long":-1.148788,"crsCode":"BYK","constituentCountry":"england"},{"stationName":"Bere Alston","lat":50.485535,"long":-4.200418,"crsCode":"BAS","constituentCountry":"england"},{"stationName":"Bere Ferrers","lat":50.450798,"long":-4.181901,"crsCode":"BFE","constituentCountry":"england"},{"stationName":"Berkhamsted","lat":51.763638,"long":-0.562498,"crsCode":"BKM","constituentCountry":"england"},{"stationName":"Berkswell","lat":52.395851,"long":-1.642845,"crsCode":"BKW","constituentCountry":"england"},{"stationName":"Bermuda Park","lat":52.5029,"long":-1.4726,"crsCode":"BEP","constituentCountry":"england"},{"stationName":"Berney Arms","lat":52.589745,"long":1.63043,"crsCode":"BYA","constituentCountry":"england"},{"stationName":"Berry Brow","lat":53.622368,"long":-1.797371,"crsCode":"BBW","constituentCountry":"england"},{"stationName":"Berrylands","lat":51.39838,"long":-0.282157,"crsCode":"BRS","constituentCountry":"england"},{"stationName":"Berwick (Sussex)","lat":50.840569,"long":0.164587,"crsCode":"BRK","constituentCountry":"england"},{"stationName":"Berwick-Upon-Tweed","lat":55.774872,"long":-2.01112,"crsCode":"BWK","constituentCountry":"england"},{"stationName":"Bescar Lane","lat":53.623531,"long":-2.914703,"crsCode":"BES","constituentCountry":"england"},{"stationName":"Bescot Stadium","lat":52.562702,"long":-1.991116,"crsCode":"BSC","constituentCountry":"england"},{"stationName":"Betchworth","lat":51.247993,"long":-0.26771,"crsCode":"BTO","constituentCountry":"england"},{"stationName":"Bethnal Green","lat":51.524406,"long":-0.059747,"crsCode":"BET","constituentCountry":"england"},{"stationName":"Betws-Y-Coed","lat":53.092056,"long":-3.80091,"crsCode":"BYC","constituentCountry":"wales"},{"stationName":"Beverley","lat":53.842281,"long":-0.423855,"crsCode":"BEV","constituentCountry":"england"},{"stationName":"Bexhill","lat":50.840679,"long":0.475678,"crsCode":"BEX","constituentCountry":"england"},{"stationName":"Bexley","lat":51.440742,"long":0.148248,"crsCode":"BXY","constituentCountry":"england"},{"stationName":"Bexleyheath","lat":51.463493,"long":0.133471,"crsCode":"BXH","constituentCountry":"england"},{"stationName":"Bicester North","lat":51.903401,"long":-1.150517,"crsCode":"BCS","constituentCountry":"england"},{"stationName":"Bicester Village","lat":51.893429,"long":-1.148393,"crsCode":"BIT","constituentCountry":"england"},{"stationName":"Bickley","lat":51.40033,"long":0.044272,"crsCode":"BKL","constituentCountry":"england"},{"stationName":"Bidston","lat":53.40913,"long":-3.078589,"crsCode":"BID","constituentCountry":"england"},{"stationName":"Biggleswade","lat":52.085068,"long":-0.260294,"crsCode":"BIW","constituentCountry":"england"},{"stationName":"Bilbrook","lat":52.623695,"long":-2.186101,"crsCode":"BBK","constituentCountry":"england"},{"stationName":"Billericay","lat":51.628834,"long":0.418656,"crsCode":"BIC","constituentCountry":"england"},{"stationName":"Billingham","lat":54.606327,"long":-1.278525,"crsCode":"BIL","constituentCountry":"england"},{"stationName":"Billingshurst","lat":51.014938,"long":-0.450348,"crsCode":"BIG","constituentCountry":"england"},{"stationName":"Bingham","lat":52.954536,"long":-0.952044,"crsCode":"BIN","constituentCountry":"england"},{"stationName":"Bingley","lat":53.84803,"long":-1.837327,"crsCode":"BIY","constituentCountry":"england"},{"stationName":"Birchgrove","lat":51.521687,"long":-3.203502,"crsCode":"BCG","constituentCountry":"wales"},{"stationName":"Birchington-On-Sea","lat":51.377956,"long":1.300781,"crsCode":"BCH","constituentCountry":"england"},{"stationName":"Birchwood","lat":53.41193,"long":-2.52802,"crsCode":"BWD","constituentCountry":"england"},{"stationName":"Birkbeck","lat":51.403847,"long":-0.056218,"crsCode":"BIK","constituentCountry":"england"},{"stationName":"Birkdale","lat":53.633514,"long":-3.014742,"crsCode":"BDL","constituentCountry":"england"},{"stationName":"Birkenhead Central","lat":53.388244,"long":-3.020897,"crsCode":"BKC","constituentCountry":"england"},{"stationName":"Birkenhead Hamilton Square","lat":53.39469,"long":-3.01365,"crsCode":"BKQ","constituentCountry":"england"},{"stationName":"Birkenhead North","lat":53.404819,"long":-3.057425,"crsCode":"BKN","constituentCountry":"england"},{"stationName":"Birkenhead Park","lat":53.397417,"long":-3.03927,"crsCode":"BKP","constituentCountry":"england"},{"stationName":"Birmingham International","lat":52.450673,"long":-1.725149,"crsCode":"BHI","constituentCountry":"england"},{"stationName":"Birmingham Moor Street","lat":52.479053,"long":-1.892483,"crsCode":"BMO","constituentCountry":"england"},{"stationName":"Birmingham New Street","lat":52.478153,"long":-1.898375,"crsCode":"BHM","constituentCountry":"england"},{"stationName":"Birmingham Snow Hill","lat":52.483555,"long":-1.899833,"crsCode":"BSW","constituentCountry":"england"},{"stationName":"Bishop Auckland","lat":54.657482,"long":-1.677545,"crsCode":"BIA","constituentCountry":"england"},{"stationName":"Bishopbriggs","lat":55.903927,"long":-4.224958,"crsCode":"BBG","constituentCountry":"scotland"},{"stationName":"Bishops Stortford","lat":51.866692,"long":0.16557,"crsCode":"BIS","constituentCountry":"england"},{"stationName":"Bishopstone (Sussex)","lat":50.78,"long":0.0824,"crsCode":"BIP","constituentCountry":"england"},{"stationName":"Bishopton","lat":55.902206,"long":-4.501637,"crsCode":"BPT","constituentCountry":"scotland"},{"stationName":"Bitterne","lat":50.918343,"long":-1.378279,"crsCode":"BTE","constituentCountry":"england"},{"stationName":"Blackburn","lat":53.746513,"long":-2.479135,"crsCode":"BBN","constituentCountry":"england"},{"stationName":"Blackheath","lat":51.465706,"long":0.008317,"crsCode":"BKH","constituentCountry":"england"},{"stationName":"Blackhorse Road","lat":51.586143,"long":-0.04123,"crsCode":"BHO","constituentCountry":"england"},{"stationName":"Blackpool North","lat":53.822772,"long":-3.049908,"crsCode":"BPN","constituentCountry":"england"},{"stationName":"Blackpool Pleasure Beach","lat":53.788154,"long":-3.053856,"crsCode":"BPB","constituentCountry":"england"},{"stationName":"Blackpool South","lat":53.798611,"long":-3.049081,"crsCode":"BPS","constituentCountry":"england"},{"stationName":"Blackridge","lat":55.88368,"long":-3.75047,"crsCode":"BKR","constituentCountry":"scotland"},{"stationName":"Blackrod","lat":53.591522,"long":-2.56954,"crsCode":"BLK","constituentCountry":"england"},{"stationName":"Blackwater","lat":51.33176,"long":-0.777023,"crsCode":"BAW","constituentCountry":"england"},{"stationName":"Blaenau Ffestiniog","lat":52.996284,"long":-3.944449,"crsCode":"BFF","constituentCountry":"wales"},{"stationName":"Blair Atholl","lat":56.765614,"long":-3.85025,"crsCode":"BLA","constituentCountry":"scotland"},{"stationName":"Blairhill","lat":55.866653,"long":-4.04221,"crsCode":"BAI","constituentCountry":"scotland"},{"stationName":"Blake Street","lat":52.605054,"long":-1.844888,"crsCode":"BKT","constituentCountry":"england"},{"stationName":"Blakedown","lat":52.406147,"long":-2.176365,"crsCode":"BKD","constituentCountry":"england"},{"stationName":"Blantyre","lat":55.7976,"long":-4.086466,"crsCode":"BLT","constituentCountry":"scotland"},{"stationName":"Blaydon","lat":54.965813,"long":-1.712578,"crsCode":"BLO","constituentCountry":"england"},{"stationName":"Bleasby","lat":53.041649,"long":-0.942469,"crsCode":"BSB","constituentCountry":"england"},{"stationName":"Bletchley","lat":51.995339,"long":-0.736368,"crsCode":"BLY","constituentCountry":"england"},{"stationName":"Bloxwich","lat":52.61853,"long":-2.011783,"crsCode":"BLX","constituentCountry":"england"},{"stationName":"Bloxwich North","lat":52.625637,"long":-2.019173,"crsCode":"BWN","constituentCountry":"england"},{"stationName":"Blundellsands & Crosby","lat":53.487675,"long":-3.039889,"crsCode":"BLN","constituentCountry":"england"},{"stationName":"Blythe Bridge","lat":52.968124,"long":-2.066966,"crsCode":"BYB","constituentCountry":"england"},{"stationName":"Bodmin Parkway","lat":50.445822,"long":-4.663026,"crsCode":"BOD","constituentCountry":"england"},{"stationName":"Bodorgan","lat":53.204292,"long":-4.418067,"crsCode":"BOR","constituentCountry":"wales"},{"stationName":"Bognor Regis","lat":50.786594,"long":-0.676384,"crsCode":"BOG","constituentCountry":"england"},{"stationName":"Bogston","lat":55.937267,"long":-4.713676,"crsCode":"BGS","constituentCountry":"scotland"},{"stationName":"Bolton","lat":53.573983,"long":-2.425661,"crsCode":"BON","constituentCountry":"england"},{"stationName":"Bolton-On-Dearne","lat":53.518986,"long":-1.312217,"crsCode":"BTD","constituentCountry":"england"},{"stationName":"Bond Street","lat":51.514,"long":-0.15,"crsCode":"BDS","constituentCountry":"england"},{"stationName":"Bookham","lat":51.288334,"long":-0.385224,"crsCode":"BKA","constituentCountry":"england"},{"stationName":"Bootle (Cumbria)","lat":54.290249,"long":-3.394818,"crsCode":"BOC","constituentCountry":"england"},{"stationName":"Bootle New Strand","lat":53.453357,"long":-2.994676,"crsCode":"BNW","constituentCountry":"england"},{"stationName":"Bootle Oriel Road","lat":53.446559,"long":-2.995791,"crsCode":"BOT","constituentCountry":"england"},{"stationName":"Bordesley","lat":52.471844,"long":-1.877771,"crsCode":"BBS","constituentCountry":"england"},{"stationName":"Borough Green & Wrotham","lat":51.29295,"long":0.306296,"crsCode":"BRG","constituentCountry":"england"},{"stationName":"Borth","lat":52.491001,"long":-4.050236,"crsCode":"BRH","constituentCountry":"wales"},{"stationName":"Bosham","lat":50.843262,"long":-0.846655,"crsCode":"BOH","constituentCountry":"england"},{"stationName":"Boston","lat":52.978802,"long":-0.030949,"crsCode":"BSN","constituentCountry":"england"},{"stationName":"Botley","lat":50.916748,"long":-1.258809,"crsCode":"BOE","constituentCountry":"england"},{"stationName":"Bottesford","lat":52.944962,"long":-0.796012,"crsCode":"BTF","constituentCountry":"england"},{"stationName":"Bourne End","lat":51.576538,"long":-0.711287,"crsCode":"BNE","constituentCountry":"england"},{"stationName":"Bournemouth","lat":50.727478,"long":-1.863955,"crsCode":"BMH","constituentCountry":"england"},{"stationName":"Bournville","lat":52.426937,"long":-1.926434,"crsCode":"BRV","constituentCountry":"england"},{"stationName":"Bow Brickhill","lat":52.003475,"long":-0.696154,"crsCode":"BWB","constituentCountry":"england"},{"stationName":"Bow Street","lat":52.439914,"long":-4.03036,"crsCode":"BOW","constituentCountry":"wales"},{"stationName":"Bowes Park","lat":51.607216,"long":-0.119761,"crsCode":"BOP","constituentCountry":"england"},{"stationName":"Bowling","lat":55.931129,"long":-4.493879,"crsCode":"BWG","constituentCountry":"scotland"},{"stationName":"Box Hill & Westhumble","lat":51.253376,"long":-0.329128,"crsCode":"BXW","constituentCountry":"england"},{"stationName":"Bracknell","lat":51.413319,"long":-0.751833,"crsCode":"BCE","constituentCountry":"england"},{"stationName":"Bradford Forster Square","lat":53.79575,"long":-1.752505,"crsCode":"BDQ","constituentCountry":"england"},{"stationName":"Bradford Interchange","lat":53.791196,"long":-1.749701,"crsCode":"BDI","constituentCountry":"england"},{"stationName":"Bradford-On-Avon","lat":51.345058,"long":-2.252669,"crsCode":"BOA","constituentCountry":"england"},{"stationName":"Brading","lat":50.678509,"long":-1.13801,"crsCode":"BDN","constituentCountry":"england"},{"stationName":"Braintree","lat":51.874989,"long":0.558261,"crsCode":"BTR","constituentCountry":"england"},{"stationName":"Braintree Freeport","lat":51.869316,"long":0.568258,"crsCode":"BTP","constituentCountry":"england"},{"stationName":"Bramhall","lat":53.359959,"long":-2.162249,"crsCode":"BML","constituentCountry":"england"},{"stationName":"Bramley (Hants)","lat":51.32988,"long":-1.061265,"crsCode":"BMY","constituentCountry":"england"},{"stationName":"Bramley (West Yorkshire)","lat":53.803532,"long":-1.630985,"crsCode":"BLE","constituentCountry":"england"},{"stationName":"Brampton (Cumbria)","lat":54.932655,"long":-2.703814,"crsCode":"BMP","constituentCountry":"england"},{"stationName":"Brampton (Suffolk)","lat":52.395397,"long":1.543871,"crsCode":"BRP","constituentCountry":"england"},{"stationName":"Branchton","lat":55.940647,"long":-4.803598,"crsCode":"BCN","constituentCountry":"scotland"},{"stationName":"Brandon","lat":52.454479,"long":0.624116,"crsCode":"BND","constituentCountry":"england"},{"stationName":"Branksome","lat":50.727528,"long":-1.919211,"crsCode":"BSM","constituentCountry":"england"},{"stationName":"Braystones","lat":54.43956,"long":-3.543406,"crsCode":"BYS","constituentCountry":"england"},{"stationName":"Bredbury","lat":53.422939,"long":-2.109823,"crsCode":"BDY","constituentCountry":"england"},{"stationName":"Breich","lat":55.827351,"long":-3.668147,"crsCode":"BRC","constituentCountry":"scotland"},{"stationName":"Brent Cross West","lat":51.5687,"long":-0.2269,"crsCode":"BCZ","constituentCountry":"england"},{"stationName":"Brentford","lat":51.487804,"long":-0.309048,"crsCode":"BFD","constituentCountry":"england"},{"stationName":"Brentwood","lat":51.61322,"long":0.30083,"crsCode":"BRE","constituentCountry":"england"},{"stationName":"Bricket Wood","lat":51.705223,"long":-0.358846,"crsCode":"BWO","constituentCountry":"england"},{"stationName":"Bridge of Allan","lat":56.157429,"long":-3.956166,"crsCode":"BEA","constituentCountry":"scotland"},{"stationName":"Bridge of Orchy","lat":56.515926,"long":-4.763048,"crsCode":"BRO","constituentCountry":"scotland"},{"stationName":"Bridgend","lat":51.506481,"long":-3.576296,"crsCode":"BGN","constituentCountry":"wales"},{"stationName":"Bridgeton","lat":55.849968,"long":-4.226668,"crsCode":"BDG","constituentCountry":"scotland"},{"stationName":"Bridgwater","lat":51.128025,"long":-2.99031,"crsCode":"BWT","constituentCountry":"england"},{"stationName":"Bridlington","lat":54.084545,"long":-0.200659,"crsCode":"BDT","constituentCountry":"england"},{"stationName":"Brierfield","lat":53.824535,"long":-2.236959,"crsCode":"BRF","constituentCountry":"england"},{"stationName":"Brigg","lat":53.549137,"long":-0.486094,"crsCode":"BGG","constituentCountry":"england"},{"stationName":"Brighouse","lat":53.698734,"long":-1.781855,"crsCode":"BGH","constituentCountry":"england"},{"stationName":"Brighton","lat":50.829659,"long":-0.141234,"crsCode":"BTN","constituentCountry":"england"},{"stationName":"Brimsdown","lat":51.655224,"long":-0.031022,"crsCode":"BMD","constituentCountry":"england"},{"stationName":"Brinnington","lat":53.431881,"long":-2.134097,"crsCode":"BNT","constituentCountry":"england"},{"stationName":"Bristol Parkway","lat":51.514061,"long":-2.53461,"crsCode":"BPW","constituentCountry":"england"},{"stationName":"Bristol Temple Meads","lat":51.449093,"long":-2.581349,"crsCode":"BRI","constituentCountry":"england"},{"stationName":"Brithdir","lat":51.710266,"long":-3.228765,"crsCode":"BHD","constituentCountry":"wales"},{"stationName":"Briton Ferry","lat":51.637852,"long":-3.8193,"crsCode":"BNF","constituentCountry":"wales"},{"stationName":"Brixton","lat":51.463245,"long":-0.114164,"crsCode":"BRX","constituentCountry":"england"},{"stationName":"Broad Green","lat":53.40654,"long":-2.893267,"crsCode":"BGE","constituentCountry":"england"},{"stationName":"Broadbottom","lat":53.440968,"long":-2.01653,"crsCode":"BDB","constituentCountry":"england"},{"stationName":"Broadstairs","lat":51.360653,"long":1.43317,"crsCode":"BSR","constituentCountry":"england"},{"stationName":"Brockenhurst","lat":50.816708,"long":-1.574112,"crsCode":"BCU","constituentCountry":"england"},{"stationName":"Brockholes","lat":53.597149,"long":-1.770299,"crsCode":"BHS","constituentCountry":"england"},{"stationName":"Brockley","lat":51.464684,"long":-0.037797,"crsCode":"BCY","constituentCountry":"england"},{"stationName":"Brockley Whins","lat":54.958672,"long":-1.462749,"crsCode":"BNR","constituentCountry":"england"},{"stationName":"Bromborough","lat":53.322146,"long":-2.987058,"crsCode":"BOM","constituentCountry":"england"},{"stationName":"Bromborough Rake","lat":53.329899,"long":-2.989644,"crsCode":"BMR","constituentCountry":"england"},{"stationName":"Bromley Cross","lat":53.613743,"long":-2.409614,"crsCode":"BMC","constituentCountry":"england"},{"stationName":"Bromley North","lat":51.408894,"long":0.017325,"crsCode":"BMN","constituentCountry":"england"},{"stationName":"Bromley South","lat":51.399887,"long":0.018374,"crsCode":"BMS","constituentCountry":"england"},{"stationName":"Bromsgrove","lat":52.322662,"long":-2.048379,"crsCode":"BMV","constituentCountry":"england"},{"stationName":"Brondesbury","lat":51.545574,"long":-0.203063,"crsCode":"BSY","constituentCountry":"england"},{"stationName":"Brondesbury Park","lat":51.540896,"long":-0.209955,"crsCode":"BSP","constituentCountry":"england"},{"stationName":"Brookmans Park","lat":51.720955,"long":-0.204811,"crsCode":"BPK","constituentCountry":"england"},{"stationName":"Brookwood","lat":51.303215,"long":-0.635753,"crsCode":"BKO","constituentCountry":"england"},{"stationName":"Broome","lat":52.422745,"long":-2.88524,"crsCode":"BME","constituentCountry":"england"},{"stationName":"Broomfleet","lat":53.740131,"long":-0.673328,"crsCode":"BMF","constituentCountry":"england"},{"stationName":"Brora","lat":58.012657,"long":-3.853251,"crsCode":"BRA","constituentCountry":"scotland"},{"stationName":"Brough","lat":53.726452,"long":-0.578255,"crsCode":"BUH","constituentCountry":"england"},{"stationName":"Broughty Ferry","lat":56.467213,"long":-2.873153,"crsCode":"BYF","constituentCountry":"scotland"},{"stationName":"Broxbourne","lat":51.745712,"long":-0.011157,"crsCode":"BXB","constituentCountry":"england"},{"stationName":"Bruce Grove","lat":51.592918,"long":-0.06982,"crsCode":"BCV","constituentCountry":"england"},{"stationName":"Brundall","lat":52.619747,"long":1.439316,"crsCode":"BDA","constituentCountry":"england"},{"stationName":"Brundall Gardens","lat":52.623035,"long":1.418896,"crsCode":"BGA","constituentCountry":"england"},{"stationName":"Brunstane","lat":55.94143,"long":-3.10064,"crsCode":"BSU","constituentCountry":"scotland"},{"stationName":"Brunswick","lat":53.382153,"long":-2.975665,"crsCode":"BRW","constituentCountry":"england"},{"stationName":"Bruton","lat":51.111584,"long":-2.447103,"crsCode":"BRU","constituentCountry":"england"},{"stationName":"Bryn","lat":53.499893,"long":-2.647233,"crsCode":"BYN","constituentCountry":"england"},{"stationName":"Buckenham","lat":52.59816,"long":1.47013,"crsCode":"BUC","constituentCountry":"england"},{"stationName":"Buckley","lat":53.163021,"long":-3.055948,"crsCode":"BCK","constituentCountry":"wales"},{"stationName":"Bucknell","lat":52.357525,"long":-2.948551,"crsCode":"BUK","constituentCountry":"england"},{"stationName":"Buckshaw Parkway","lat":53.67283,"long":-2.66447,"crsCode":"BSV","constituentCountry":"england"},{"stationName":"Bugle","lat":50.399979,"long":-4.791736,"crsCode":"BGL","constituentCountry":"england"},{"stationName":"Builth Road","lat":52.169289,"long":-3.427068,"crsCode":"BHR","constituentCountry":"wales"},{"stationName":"Bulwell","lat":52.999625,"long":-1.196115,"crsCode":"BLW","constituentCountry":"england"},{"stationName":"Bures","lat":51.97094,"long":0.769021,"crsCode":"BUE","constituentCountry":"england"},{"stationName":"Burgess Hill","lat":50.953552,"long":-0.127749,"crsCode":"BUG","constituentCountry":"england"},{"stationName":"Burley Park","lat":53.808743,"long":-1.576277,"crsCode":"BUY","constituentCountry":"england"},{"stationName":"Burley-In-Wharfedale","lat":53.908112,"long":-1.753363,"crsCode":"BUW","constituentCountry":"england"},{"stationName":"Burnage","lat":53.421205,"long":-2.215896,"crsCode":"BNA","constituentCountry":"england"},{"stationName":"Burneside","lat":54.355305,"long":-2.766231,"crsCode":"BUD","constituentCountry":"england"},{"stationName":"Burnham","lat":51.523538,"long":-0.647335,"crsCode":"BNM","constituentCountry":"england"},{"stationName":"Burnham-On-Crouch","lat":51.633526,"long":0.813459,"crsCode":"BUU","constituentCountry":"england"},{"stationName":"Burnley Barracks","lat":53.791237,"long":-2.258014,"crsCode":"BUB","constituentCountry":"england"},{"stationName":"Burnley Central","lat":53.793776,"long":-2.244644,"crsCode":"BNC","constituentCountry":"england"},{"stationName":"Burnley Manchester Road","lat":53.784962,"long":-2.248883,"crsCode":"BYM","constituentCountry":"england"},{"stationName":"Burnside","lat":55.817123,"long":-4.204029,"crsCode":"BUI","constituentCountry":"scotland"},{"stationName":"Burntisland","lat":56.057133,"long":-3.233214,"crsCode":"BTS","constituentCountry":"scotland"},{"stationName":"Burscough Bridge","lat":53.60519,"long":-2.841758,"crsCode":"BCB","constituentCountry":"england"},{"stationName":"Burscough Junction","lat":53.598011,"long":-2.840105,"crsCode":"BCJ","constituentCountry":"england"},{"stationName":"Bursledon","lat":50.882858,"long":-1.304835,"crsCode":"BUO","constituentCountry":"england"},{"stationName":"Burton Joyce","lat":52.984047,"long":-1.040698,"crsCode":"BUJ","constituentCountry":"england"},{"stationName":"Burton-On-Trent","lat":52.805798,"long":-1.64246,"crsCode":"BUT","constituentCountry":"england"},{"stationName":"Bury St Edmunds","lat":52.253727,"long":0.713355,"crsCode":"BSE","constituentCountry":"england"},{"stationName":"Busby","lat":55.780109,"long":-4.262551,"crsCode":"BUS","constituentCountry":"scotland"},{"stationName":"Bush Hill Park","lat":51.642365,"long":-0.06916,"crsCode":"BHK","constituentCountry":"england"},{"stationName":"Bushey","lat":51.644669,"long":-0.384806,"crsCode":"BSH","constituentCountry":"england"},{"stationName":"Butlers Lane","lat":52.592376,"long":-1.838163,"crsCode":"BUL","constituentCountry":"england"},{"stationName":"Buxted","lat":50.990475,"long":0.131651,"crsCode":"BXD","constituentCountry":"england"},{"stationName":"Buxton","lat":53.26058,"long":-1.913086,"crsCode":"BUX","constituentCountry":"england"},{"stationName":"Byfleet & New Haw","lat":51.349869,"long":-0.480714,"crsCode":"BFN","constituentCountry":"england"},{"stationName":"Bynea","lat":51.67276,"long":-4.098396,"crsCode":"BYE","constituentCountry":"wales"},{"stationName":"Cadoxton","lat":51.412422,"long":-3.248087,"crsCode":"CAD","constituentCountry":"wales"},{"stationName":"Caergwrle","lat":53.107922,"long":-3.033069,"crsCode":"CGW","constituentCountry":"wales"},{"stationName":"Caerphilly","lat":51.571903,"long":-3.217805,"crsCode":"CPH","constituentCountry":"wales"},{"stationName":"Caersws","lat":52.516262,"long":-3.43387,"crsCode":"CWS","constituentCountry":"wales"},{"stationName":"Caldercruix","lat":55.88791,"long":-3.88978,"crsCode":"CAC","constituentCountry":"scotland"},{"stationName":"Caldicot","lat":51.58474,"long":-2.760598,"crsCode":"CDT","constituentCountry":"wales"},{"stationName":"Caledonian Road & Barnsbury","lat":51.543301,"long":-0.115177,"crsCode":"CIR","constituentCountry":"england"},{"stationName":"Calstock","lat":50.497487,"long":-4.208665,"crsCode":"CSK","constituentCountry":"england"},{"stationName":"Cam & Dursley","lat":51.71701,"long":-2.366194,"crsCode":"CDU","constituentCountry":"england"},{"stationName":"Camberley","lat":51.335911,"long":-0.745328,"crsCode":"CAM","constituentCountry":"england"},{"stationName":"Camborne","lat":50.210392,"long":-5.297921,"crsCode":"CBN","constituentCountry":"england"},{"stationName":"Cambridge","lat":52.194519,"long":0.137584,"crsCode":"CBG","constituentCountry":"england"},{"stationName":"Cambridge Heath","lat":51.53157,"long":-0.057997,"crsCode":"CBH","constituentCountry":"england"},{"stationName":"Cambridge North","lat":52.223333,"long":0.157778,"crsCode":"CMB","constituentCountry":"england"},{"stationName":"Cambuslang","lat":55.819458,"long":-4.173839,"crsCode":"CBL","constituentCountry":"scotland"},{"stationName":"Camden Road","lat":51.541889,"long":-0.139764,"crsCode":"CMD","constituentCountry":"england"},{"stationName":"Camelon","lat":56.006775,"long":-3.817015,"crsCode":"CMO","constituentCountry":"scotland"},{"stationName":"Cameron Bridge","lat":56.189693,"long":-3.046855,"crsCode":"CBX","constituentCountry":"scotland"},{"stationName":"Canada Water","lat":51.49823,"long":-0.05076,"crsCode":"ZCW","constituentCountry":"england"},{"stationName":"Canary Wharf","lat":51.5061,"long":-0.01578,"crsCode":"CWX","constituentCountry":"england"},{"stationName":"Canley","lat":52.399418,"long":-1.547232,"crsCode":"CNL","constituentCountry":"england"},{"stationName":"Cannock","lat":52.686768,"long":-2.022158,"crsCode":"CAO","constituentCountry":"england"},{"stationName":"Canonbury","lat":51.548747,"long":-0.091614,"crsCode":"CNN","constituentCountry":"england"},{"stationName":"Canterbury East","lat":51.275261,"long":1.075434,"crsCode":"CBE","constituentCountry":"england"},{"stationName":"Canterbury West","lat":51.284279,"long":1.074608,"crsCode":"CBW","constituentCountry":"england"},{"stationName":"Cantley","lat":52.578907,"long":1.512899,"crsCode":"CNY","constituentCountry":"england"},{"stationName":"Capenhurst","lat":53.260155,"long":-2.942908,"crsCode":"CPU","constituentCountry":"england"},{"stationName":"Carbis Bay","lat":50.19746,"long":-5.463815,"crsCode":"CBB","constituentCountry":"england"},{"stationName":"Cardenden","lat":56.141308,"long":-3.261651,"crsCode":"CDD","constituentCountry":"scotland"},{"stationName":"Cardiff Bay","lat":51.466324,"long":-3.166049,"crsCode":"CDB","constituentCountry":"wales"},{"stationName":"Cardiff Central","lat":51.475193,"long":-3.177794,"crsCode":"CDF","constituentCountry":"wales"},{"stationName":"Cardiff Queen Street","lat":51.482464,"long":-3.170782,"crsCode":"CDQ","constituentCountry":"wales"},{"stationName":"Cardonald","lat":55.853252,"long":-4.340297,"crsCode":"CDO","constituentCountry":"scotland"},{"stationName":"Cardross","lat":55.960163,"long":-4.652782,"crsCode":"CDR","constituentCountry":"scotland"},{"stationName":"Carfin","lat":55.806938,"long":-3.956112,"crsCode":"CRF","constituentCountry":"scotland"},{"stationName":"Cark","lat":54.177513,"long":-2.972746,"crsCode":"CAK","constituentCountry":"england"},{"stationName":"Carlisle","lat":54.890675,"long":-2.933833,"crsCode":"CAR","constituentCountry":"england"},{"stationName":"Carlton","lat":52.964573,"long":-1.078357,"crsCode":"CTO","constituentCountry":"england"},{"stationName":"Carluke","lat":55.730408,"long":-3.848761,"crsCode":"CLU","constituentCountry":"scotland"},{"stationName":"Carmarthen","lat":51.853233,"long":-4.305732,"crsCode":"CMN","constituentCountry":"wales"},{"stationName":"Carmyle","lat":55.834053,"long":-4.161873,"crsCode":"CML","constituentCountry":"scotland"},{"stationName":"Carnforth","lat":54.129688,"long":-2.771244,"crsCode":"CNF","constituentCountry":"england"},{"stationName":"Carnoustie","lat":56.500618,"long":-2.7066,"crsCode":"CAN","constituentCountry":"scotland"},{"stationName":"Carntyne","lat":55.854412,"long":-4.17898,"crsCode":"CAY","constituentCountry":"scotland"},{"stationName":"Carpenders Park","lat":51.627885,"long":-0.385578,"crsCode":"CPK","constituentCountry":"england"},{"stationName":"Carrbridge","lat":57.279873,"long":-3.829541,"crsCode":"CAG","constituentCountry":"scotland"},{"stationName":"Carshalton","lat":51.367859,"long":-0.16693,"crsCode":"CSH","constituentCountry":"england"},{"stationName":"Carshalton Beeches","lat":51.357117,"long":-0.17023,"crsCode":"CSB","constituentCountry":"england"},{"stationName":"Carstairs","lat":55.69075,"long":-3.668696,"crsCode":"CRS","constituentCountry":"scotland"},{"stationName":"Cartsdyke","lat":55.942261,"long":-4.731633,"crsCode":"CDY","constituentCountry":"scotland"},{"stationName":"Castle Bar Park","lat":51.522865,"long":-0.331575,"crsCode":"CBP","constituentCountry":"england"},{"stationName":"Castle Cary","lat":51.099583,"long":-2.522683,"crsCode":"CLC","constituentCountry":"england"},{"stationName":"Castleford","lat":53.724171,"long":-1.355852,"crsCode":"CFD","constituentCountry":"england"},{"stationName":"Castleton","lat":53.591804,"long":-2.178125,"crsCode":"CAS","constituentCountry":"england"},{"stationName":"Castleton Moor","lat":54.467297,"long":-0.947707,"crsCode":"CSM","constituentCountry":"england"},{"stationName":"Caterham","lat":51.282803,"long":-0.078539,"crsCode":"CAT","constituentCountry":"england"},{"stationName":"Catford","lat":51.444706,"long":-0.025701,"crsCode":"CTF","constituentCountry":"england"},{"stationName":"Catford Bridge","lat":51.444725,"long":-0.027142,"crsCode":"CFB","constituentCountry":"england"},{"stationName":"Cathays","lat":51.488678,"long":-3.178149,"crsCode":"CYS","constituentCountry":"wales"},{"stationName":"Cathcart","lat":55.817879,"long":-4.261552,"crsCode":"CCT","constituentCountry":"scotland"},{"stationName":"Cattal","lat":53.997515,"long":-1.319808,"crsCode":"CTL","constituentCountry":"england"},{"stationName":"Causeland","lat":50.405525,"long":-4.466937,"crsCode":"CAU","constituentCountry":"england"},{"stationName":"Cefn-Y-Bedd","lat":53.098511,"long":-3.031972,"crsCode":"CYB","constituentCountry":"wales"},{"stationName":"Chadwell Heath","lat":51.567905,"long":0.128263,"crsCode":"CTH","constituentCountry":"england"},{"stationName":"Chafford Hundred","lat":51.502792,"long":0.290938,"crsCode":"CFH","constituentCountry":"england"},{"stationName":"Chalfont & Latimer","lat":51.66835,"long":-0.560646,"crsCode":"CFO","constituentCountry":"england"},{"stationName":"Chalkwell","lat":51.53883,"long":0.6706,"crsCode":"CHW","constituentCountry":"england"},{"stationName":"Chandlers Ford","lat":50.983,"long":-1.3845,"crsCode":"CFR","constituentCountry":"england"},{"stationName":"Chapel-En-Le-Frith","lat":53.312405,"long":-1.918915,"crsCode":"CEF","constituentCountry":"england"},{"stationName":"Chapeltown","lat":53.464046,"long":-1.466743,"crsCode":"CLN","constituentCountry":"england"},{"stationName":"Chapleton","lat":51.01577,"long":-4.024398,"crsCode":"CPN","constituentCountry":"england"},{"stationName":"Chappel & Wakes Colne","lat":51.925312,"long":0.758944,"crsCode":"CWC","constituentCountry":"england"},{"stationName":"Charing","lat":51.208649,"long":0.790337,"crsCode":"CHG","constituentCountry":"england"},{"stationName":"Charing Cross (Glasgow)","lat":55.865345,"long":-4.270689,"crsCode":"CHC","constituentCountry":"scotland"},{"stationName":"Charlbury","lat":51.872929,"long":-1.490133,"crsCode":"CBY","constituentCountry":"england"},{"stationName":"Charlton","lat":51.486904,"long":0.030852,"crsCode":"CTN","constituentCountry":"england"},{"stationName":"Chartham","lat":51.256958,"long":1.018303,"crsCode":"CRT","constituentCountry":"england"},{"stationName":"Chassen Road","lat":53.44605,"long":-2.368171,"crsCode":"CSR","constituentCountry":"england"},{"stationName":"Chatelherault","lat":55.76521,"long":-4.00466,"crsCode":"CTE","constituentCountry":"scotland"},{"stationName":"Chatham","lat":51.381161,"long":0.520559,"crsCode":"CTM","constituentCountry":"england"},{"stationName":"Chathill","lat":55.536404,"long":-1.706846,"crsCode":"CHT","constituentCountry":"england"},{"stationName":"Cheadle Hulme","lat":53.375956,"long":-2.188125,"crsCode":"CHU","constituentCountry":"england"},{"stationName":"Cheam","lat":51.35601,"long":-0.2148,"crsCode":"CHE","constituentCountry":"england"},{"stationName":"Cheddington","lat":51.857908,"long":-0.662168,"crsCode":"CED","constituentCountry":"england"},{"stationName":"Chelford","lat":53.270744,"long":-2.280375,"crsCode":"CEL","constituentCountry":"england"},{"stationName":"Chelmsford","lat":51.736595,"long":0.469316,"crsCode":"CHM","constituentCountry":"england"},{"stationName":"Chelsfield","lat":51.35603,"long":0.108373,"crsCode":"CLD","constituentCountry":"england"},{"stationName":"Cheltenham Spa","lat":51.896465,"long":-2.100245,"crsCode":"CNM","constituentCountry":"england"},{"stationName":"Chepstow","lat":51.640137,"long":-2.67193,"crsCode":"CPW","constituentCountry":"wales"},{"stationName":"Cherry Tree","lat":53.732868,"long":-2.518401,"crsCode":"CYT","constituentCountry":"england"},{"stationName":"Chertsey","lat":51.387108,"long":-0.509667,"crsCode":"CHY","constituentCountry":"england"},{"stationName":"Cheshunt","lat":51.702747,"long":-0.023171,"crsCode":"CHN","constituentCountry":"england"},{"stationName":"Chessington North","lat":51.364483,"long":-0.300661,"crsCode":"CSN","constituentCountry":"england"},{"stationName":"Chessington South","lat":51.356491,"long":-0.308144,"crsCode":"CSS","constituentCountry":"england"},{"stationName":"Chester","lat":53.196815,"long":-2.880152,"crsCode":"CTR","constituentCountry":"england"},{"stationName":"Chester Road","lat":52.535575,"long":-1.832582,"crsCode":"CRD","constituentCountry":"england"},{"stationName":"Chester-Le-Street","lat":54.854885,"long":-1.577847,"crsCode":"CLS","constituentCountry":"england"},{"stationName":"Chesterfield","lat":53.238209,"long":-1.42011,"crsCode":"CHD","constituentCountry":"england"},{"stationName":"Chestfield & Swalecliffe","lat":51.360004,"long":1.068182,"crsCode":"CSW","constituentCountry":"england"},{"stationName":"Chetnole","lat":50.866428,"long":-2.574072,"crsCode":"CNO","constituentCountry":"england"},{"stationName":"Chichester","lat":50.831821,"long":-0.783032,"crsCode":"CCH","constituentCountry":"england"},{"stationName":"Chilham","lat":51.244549,"long":0.975937,"crsCode":"CIL","constituentCountry":"england"},{"stationName":"Chilworth","lat":51.21553,"long":-0.523795,"crsCode":"CHL","constituentCountry":"england"},{"stationName":"Chingford","lat":51.63385,"long":0.009955,"crsCode":"CHI","constituentCountry":"england"},{"stationName":"Chinley","lat":53.340275,"long":-1.9444,"crsCode":"CLY","constituentCountry":"england"},{"stationName":"Chippenham","lat":51.462162,"long":-2.115123,"crsCode":"CPM","constituentCountry":"england"},{"stationName":"Chipstead","lat":51.309444,"long":-0.169259,"crsCode":"CHP","constituentCountry":"england"},{"stationName":"Chirk","lat":52.932793,"long":-3.066708,"crsCode":"CRK","constituentCountry":"wales"},{"stationName":"Chislehurst","lat":51.405506,"long":0.057437,"crsCode":"CIT","constituentCountry":"england"},{"stationName":"Chiswick","lat":51.4809,"long":-0.267538,"crsCode":"CHK","constituentCountry":"england"},{"stationName":"Cholsey","lat":51.570135,"long":-1.157942,"crsCode":"CHO","constituentCountry":"england"},{"stationName":"Chorley","lat":53.652428,"long":-2.626693,"crsCode":"CRL","constituentCountry":"england"},{"stationName":"Chorleywood","lat":51.654188,"long":-0.51846,"crsCode":"CLW","constituentCountry":"england"},{"stationName":"Christchurch","lat":50.738148,"long":-1.784566,"crsCode":"CHR","constituentCountry":"england"},{"stationName":"Christs Hospital","lat":51.050629,"long":-0.363538,"crsCode":"CHH","constituentCountry":"england"},{"stationName":"Church & Oswaldtwistle","lat":53.750431,"long":-2.391216,"crsCode":"CTW","constituentCountry":"england"},{"stationName":"Church Fenton","lat":53.827671,"long":-1.226652,"crsCode":"CHF","constituentCountry":"england"},{"stationName":"Church Stretton","lat":52.536606,"long":-2.803485,"crsCode":"CTT","constituentCountry":"england"},{"stationName":"Cilmeri","lat":52.150936,"long":-3.45719,"crsCode":"CIM","constituentCountry":"wales"},{"stationName":"City Thameslink","lat":51.514336,"long":-0.103412,"crsCode":"CTK","constituentCountry":"england"},{"stationName":"Clacton-On-Sea","lat":51.793953,"long":1.154134,"crsCode":"CLT","constituentCountry":"england"},{"stationName":"Clandon","lat":51.263832,"long":-0.503622,"crsCode":"CLA","constituentCountry":"england"},{"stationName":"Clapham (North Yorkshire)","lat":54.105392,"long":-2.409858,"crsCode":"CPY","constituentCountry":"england"},{"stationName":"Clapham High Street","lat":51.46534,"long":-0.1328,"crsCode":"CLP","constituentCountry":"england"},{"stationName":"Clapham Junction","lat":51.464134,"long":-0.170281,"crsCode":"CLJ","constituentCountry":"england"},{"stationName":"Clapton","lat":51.56213,"long":-0.056685,"crsCode":"CPT","constituentCountry":"england"},{"stationName":"Clarbeston Road","lat":51.852207,"long":-4.88221,"crsCode":"CLR","constituentCountry":"wales"},{"stationName":"Clarkston","lat":55.789753,"long":-4.275865,"crsCode":"CKS","constituentCountry":"scotland"},{"stationName":"Claverdon","lat":52.276424,"long":-1.696566,"crsCode":"CLV","constituentCountry":"england"},{"stationName":"Claygate","lat":51.360664,"long":-0.348207,"crsCode":"CLG","constituentCountry":"england"},{"stationName":"Cleethorpes","lat":53.56316,"long":-0.029584,"crsCode":"CLE","constituentCountry":"england"},{"stationName":"Cleland","lat":55.804073,"long":-3.909695,"crsCode":"CEA","constituentCountry":"scotland"},{"stationName":"Clifton","lat":53.522503,"long":-2.314811,"crsCode":"CLI","constituentCountry":"england"},{"stationName":"Clifton Down","lat":51.46423,"long":-2.611761,"crsCode":"CFN","constituentCountry":"england"},{"stationName":"Clitheroe","lat":53.87345,"long":-2.394365,"crsCode":"CLH","constituentCountry":"england"},{"stationName":"Clock House","lat":51.408096,"long":-0.041668,"crsCode":"CLK","constituentCountry":"england"},{"stationName":"Clunderwen","lat":51.8405,"long":-4.731915,"crsCode":"CUW","constituentCountry":"wales"},{"stationName":"Clydebank","lat":55.900562,"long":-4.403927,"crsCode":"CYK","constituentCountry":"scotland"},{"stationName":"Coatbridge Central","lat":55.863213,"long":-4.032443,"crsCode":"CBC","constituentCountry":"scotland"},{"stationName":"Coatbridge Sunnyside","lat":55.866886,"long":-4.027847,"crsCode":"CBS","constituentCountry":"scotland"},{"stationName":"Coatdyke","lat":55.864567,"long":-4.005343,"crsCode":"COA","constituentCountry":"scotland"},{"stationName":"Cobham & Stoke Dabernon","lat":51.318077,"long":-0.389917,"crsCode":"CSD","constituentCountry":"england"},{"stationName":"Codsall","lat":52.627262,"long":-2.200891,"crsCode":"CSL","constituentCountry":"england"},{"stationName":"Cogan","lat":51.445396,"long":-3.189974,"crsCode":"CGN","constituentCountry":"wales"},{"stationName":"Colchester","lat":51.900478,"long":0.894085,"crsCode":"COL","constituentCountry":"england"},{"stationName":"Colchester Town","lat":51.886505,"long":0.904055,"crsCode":"CET","constituentCountry":"england"},{"stationName":"Coleshill Parkway","lat":52.5164,"long":-1.7081,"crsCode":"CEH","constituentCountry":"england"},{"stationName":"Collingham","lat":53.144047,"long":-0.748588,"crsCode":"CLM","constituentCountry":"england"},{"stationName":"Collington","lat":50.839272,"long":0.457142,"crsCode":"CLL","constituentCountry":"england"},{"stationName":"Colne","lat":53.85478,"long":-2.181087,"crsCode":"CNE","constituentCountry":"england"},{"stationName":"Colwall","lat":52.080284,"long":-2.357489,"crsCode":"CWL","constituentCountry":"england"},{"stationName":"Colwyn Bay","lat":53.296349,"long":-3.725462,"crsCode":"CWB","constituentCountry":"wales"},{"stationName":"Combe","lat":51.832277,"long":-1.392817,"crsCode":"CME","constituentCountry":"england"},{"stationName":"Commondale","lat":54.481018,"long":-0.97514,"crsCode":"COM","constituentCountry":"england"},{"stationName":"Congleton","lat":53.157637,"long":-2.192754,"crsCode":"CNG","constituentCountry":"england"},{"stationName":"Conisbrough","lat":53.48885,"long":-1.234333,"crsCode":"CNS","constituentCountry":"england"},{"stationName":"Connel Ferry","lat":56.451981,"long":-5.384973,"crsCode":"CON","constituentCountry":"scotland"},{"stationName":"Conon Bridge","lat":57.5617,"long":-4.4404,"crsCode":"CBD","constituentCountry":"scotland"},{"stationName":"Cononley","lat":53.917351,"long":-2.010631,"crsCode":"CEY","constituentCountry":"england"},{"stationName":"Conway Park","lat":53.386219,"long":-3.026886,"crsCode":"CNP","constituentCountry":"england"},{"stationName":"Conwy","lat":53.280093,"long":-3.83046,"crsCode":"CNW","constituentCountry":"wales"},{"stationName":"Cooden Beach","lat":50.83271,"long":0.426969,"crsCode":"COB","constituentCountry":"england"},{"stationName":"Cookham","lat":51.556873,"long":-0.721948,"crsCode":"COO","constituentCountry":"england"},{"stationName":"Cooksbridge","lat":50.903938,"long":-0.010272,"crsCode":"CBR","constituentCountry":"england"},{"stationName":"Coombe","lat":50.44479,"long":-4.481655,"crsCode":"COE","constituentCountry":"england"},{"stationName":"Copplestone","lat":50.814228,"long":-3.751624,"crsCode":"COP","constituentCountry":"england"},{"stationName":"Corbridge","lat":54.966152,"long":-2.017141,"crsCode":"CRB","constituentCountry":"england"},{"stationName":"Corby","lat":52.489196,"long":-0.687944,"crsCode":"COR","constituentCountry":"england"},{"stationName":"Corkerhill","lat":55.836494,"long":-4.323322,"crsCode":"CKH","constituentCountry":"scotland"},{"stationName":"Corkickle","lat":54.541657,"long":-3.582155,"crsCode":"CKL","constituentCountry":"england"},{"stationName":"Corpach","lat":56.842724,"long":-5.121662,"crsCode":"CPA","constituentCountry":"scotland"},{"stationName":"Corrour","lat":56.760181,"long":-4.690966,"crsCode":"CRR","constituentCountry":"scotland"},{"stationName":"Coryton","lat":51.520512,"long":-3.230858,"crsCode":"COY","constituentCountry":"wales"},{"stationName":"Coseley","lat":52.545738,"long":-2.086051,"crsCode":"CSY","constituentCountry":"england"},{"stationName":"Cosford","lat":52.645031,"long":-2.301479,"crsCode":"COS","constituentCountry":"england"},{"stationName":"Cosham","lat":50.841644,"long":-1.068259,"crsCode":"CSA","constituentCountry":"england"},{"stationName":"Cottingham","lat":53.781826,"long":-0.406402,"crsCode":"CGM","constituentCountry":"england"},{"stationName":"Cottingley","lat":53.767437,"long":-1.588832,"crsCode":"COT","constituentCountry":"england"},{"stationName":"Coulsdon South","lat":51.315231,"long":-0.13746,"crsCode":"CDS","constituentCountry":"england"},{"stationName":"Coulsdon Town","lat":51.32243,"long":-0.13429,"crsCode":"CDN","constituentCountry":"england"},{"stationName":"Coventry","lat":52.400787,"long":-1.513466,"crsCode":"COV","constituentCountry":"england"},{"stationName":"Coventry Arena","lat":52.447032,"long":-1.494559,"crsCode":"CAA","constituentCountry":"england"},{"stationName":"Cowden","lat":51.155441,"long":0.110653,"crsCode":"CWN","constituentCountry":"england"},{"stationName":"Cowdenbeath","lat":56.111679,"long":-3.344314,"crsCode":"COW","constituentCountry":"scotland"},{"stationName":"Cradley Heath","lat":52.469177,"long":-2.08976,"crsCode":"CRA","constituentCountry":"england"},{"stationName":"Craigendoran","lat":55.99485,"long":-4.711291,"crsCode":"CGD","constituentCountry":"scotland"},{"stationName":"Cramlington","lat":55.088604,"long":-1.598887,"crsCode":"CRM","constituentCountry":"england"},{"stationName":"Cranbrook (Devon)","lat":50.7501,"long":-3.4206,"crsCode":"CBK","constituentCountry":"england"},{"stationName":"Craven Arms","lat":52.441975,"long":-2.837077,"crsCode":"CRV","constituentCountry":"england"},{"stationName":"Crawley","lat":51.111874,"long":-0.187083,"crsCode":"CRW","constituentCountry":"england"},{"stationName":"Crayford","lat":51.448273,"long":0.178826,"crsCode":"CRY","constituentCountry":"england"},{"stationName":"Crediton","lat":50.783375,"long":-3.646912,"crsCode":"CDI","constituentCountry":"england"},{"stationName":"Cressing","lat":51.852028,"long":0.580186,"crsCode":"CES","constituentCountry":"england"},{"stationName":"Cressington","lat":53.3588,"long":-2.91172,"crsCode":"CSG","constituentCountry":"england"},{"stationName":"Creswell","lat":53.264008,"long":-1.215865,"crsCode":"CWD","constituentCountry":"england"},{"stationName":"Crewe","lat":53.089607,"long":-2.432987,"crsCode":"CRE","constituentCountry":"england"},{"stationName":"Crewkerne","lat":50.873337,"long":-2.778815,"crsCode":"CKN","constituentCountry":"england"},{"stationName":"Crews Hill","lat":51.684334,"long":-0.106441,"crsCode":"CWH","constituentCountry":"england"},{"stationName":"Crianlarich","lat":56.389652,"long":-4.617778,"crsCode":"CNR","constituentCountry":"scotland"},{"stationName":"Criccieth","lat":52.918312,"long":-4.236972,"crsCode":"CCC","constituentCountry":"wales"},{"stationName":"Cricklewood","lat":51.559227,"long":-0.214071,"crsCode":"CRI","constituentCountry":"england"},{"stationName":"Croftfoot","lat":55.818455,"long":-4.229643,"crsCode":"CFF","constituentCountry":"scotland"},{"stationName":"Crofton Park","lat":51.454777,"long":-0.03678,"crsCode":"CFT","constituentCountry":"england"},{"stationName":"Cromer","lat":52.930595,"long":1.292778,"crsCode":"CMR","constituentCountry":"england"},{"stationName":"Cromford","lat":53.112915,"long":-1.548788,"crsCode":"CMF","constituentCountry":"england"},{"stationName":"Crookston","lat":55.84388,"long":-4.36049,"crsCode":"CKT","constituentCountry":"scotland"},{"stationName":"Cross Gates","lat":53.804638,"long":-1.451798,"crsCode":"CRG","constituentCountry":"england"},{"stationName":"Crossflatts","lat":53.858829,"long":-1.844886,"crsCode":"CFL","constituentCountry":"england"},{"stationName":"Crosshill","lat":55.833225,"long":-4.257648,"crsCode":"COI","constituentCountry":"scotland"},{"stationName":"Crosskeys","lat":51.621,"long":-3.1261,"crsCode":"CKY","constituentCountry":"wales"},{"stationName":"Crossmyloof","lat":55.833626,"long":-4.284813,"crsCode":"CMY","constituentCountry":"scotland"},{"stationName":"Croston","lat":53.66756,"long":-2.777717,"crsCode":"CSO","constituentCountry":"england"},{"stationName":"Crouch Hill","lat":51.571205,"long":-0.116907,"crsCode":"CRH","constituentCountry":"england"},{"stationName":"Crowborough","lat":51.046085,"long":0.188422,"crsCode":"COH","constituentCountry":"england"},{"stationName":"Crowhurst","lat":50.888702,"long":0.500984,"crsCode":"CWU","constituentCountry":"england"},{"stationName":"Crowle","lat":53.589725,"long":-0.817042,"crsCode":"CWE","constituentCountry":"england"},{"stationName":"Crowthorne","lat":51.366356,"long":-0.819194,"crsCode":"CRN","constituentCountry":"england"},{"stationName":"Croy","lat":55.955734,"long":-4.035697,"crsCode":"CRO","constituentCountry":"scotland"},{"stationName":"Crystal Palace","lat":51.417603,"long":-0.072899,"crsCode":"CYP","constituentCountry":"england"},{"stationName":"Cuddington","lat":53.23991,"long":-2.599329,"crsCode":"CUD","constituentCountry":"england"},{"stationName":"Cuffley","lat":51.708675,"long":-0.109761,"crsCode":"CUF","constituentCountry":"england"},{"stationName":"Culham","lat":51.653773,"long":-1.236445,"crsCode":"CUM","constituentCountry":"england"},{"stationName":"Culrain","lat":57.919842,"long":-4.405676,"crsCode":"CUA","constituentCountry":"scotland"},{"stationName":"Cumbernauld","lat":55.941326,"long":-3.982089,"crsCode":"CUB","constituentCountry":"scotland"},{"stationName":"Cupar","lat":56.317043,"long":-3.008772,"crsCode":"CUP","constituentCountry":"scotland"},{"stationName":"Curriehill","lat":55.901703,"long":-3.317849,"crsCode":"CUH","constituentCountry":"scotland"},{"stationName":"Custom House","lat":51.509639,"long":0.025894,"crsCode":"CUS","constituentCountry":"england"},{"stationName":"Cuxton","lat":51.374298,"long":0.462693,"crsCode":"CUX","constituentCountry":"england"},{"stationName":"Cwmbach","lat":51.701885,"long":-3.413774,"crsCode":"CMH","constituentCountry":"wales"},{"stationName":"Cwmbran","lat":51.656544,"long":-3.016233,"crsCode":"CWM","constituentCountry":"wales"},{"stationName":"Cynghordy","lat":52.051689,"long":-3.747095,"crsCode":"CYN","constituentCountry":"wales"},{"stationName":"Dagenham Dock","lat":51.526237,"long":0.14505,"crsCode":"DDK","constituentCountry":"england"},{"stationName":"Daisy Hill","lat":53.539389,"long":-2.516212,"crsCode":"DSY","constituentCountry":"england"},{"stationName":"Dalgety Bay","lat":56.044178,"long":-3.354809,"crsCode":"DAG","constituentCountry":"scotland"},{"stationName":"Dalmally","lat":56.400272,"long":-4.9832,"crsCode":"DAL","constituentCountry":"scotland"},{"stationName":"Dalmarnock","lat":55.839371,"long":-4.21647,"crsCode":"DAK","constituentCountry":"scotland"},{"stationName":"Dalmeny","lat":55.986362,"long":-3.381645,"crsCode":"DAM","constituentCountry":"scotland"},{"stationName":"Dalmuir","lat":55.911793,"long":-4.427038,"crsCode":"DMR","constituentCountry":"scotland"},{"stationName":"Dalreoch","lat":55.947365,"long":-4.578226,"crsCode":"DLR","constituentCountry":"scotland"},{"stationName":"Dalry","lat":55.705395,"long":-4.711899,"crsCode":"DLY","constituentCountry":"scotland"},{"stationName":"Dalston (Cumbria)","lat":54.846203,"long":-2.988866,"crsCode":"DLS","constituentCountry":"england"},{"stationName":"Dalston Junction","lat":51.546139,"long":-0.07544,"crsCode":"DLJ","constituentCountry":"england"},{"stationName":"Dalston Kingsland","lat":51.548035,"long":-0.074594,"crsCode":"DLK","constituentCountry":"england"},{"stationName":"Dalton","lat":54.15424,"long":-3.179031,"crsCode":"DLT","constituentCountry":"england"},{"stationName":"Dalwhinnie","lat":56.934334,"long":-4.246498,"crsCode":"DLW","constituentCountry":"scotland"},{"stationName":"Danby","lat":54.466068,"long":-0.910704,"crsCode":"DNY","constituentCountry":"england"},{"stationName":"Danescourt","lat":51.505199,"long":-3.23332,"crsCode":"DCT","constituentCountry":"wales"},{"stationName":"Danzey","lat":52.324329,"long":-1.819493,"crsCode":"DZY","constituentCountry":"england"},{"stationName":"Darlington","lat":54.520462,"long":-1.54732,"crsCode":"DAR","constituentCountry":"england"},{"stationName":"Darnall","lat":53.381084,"long":-1.410661,"crsCode":"DAN","constituentCountry":"england"},{"stationName":"Darsham","lat":52.272812,"long":1.522343,"crsCode":"DSM","constituentCountry":"england"},{"stationName":"Dartford","lat":51.447548,"long":0.217643,"crsCode":"DFD","constituentCountry":"england"},{"stationName":"Darton","lat":53.58836,"long":-1.531646,"crsCode":"DRT","constituentCountry":"england"},{"stationName":"Darwen","lat":53.69804,"long":-2.464958,"crsCode":"DWN","constituentCountry":"england"},{"stationName":"Datchet","lat":51.483303,"long":-0.579978,"crsCode":"DAT","constituentCountry":"england"},{"stationName":"Davenport","lat":53.390719,"long":-2.153234,"crsCode":"DVN","constituentCountry":"england"},{"stationName":"Dawlish","lat":50.580692,"long":-3.464583,"crsCode":"DWL","constituentCountry":"england"},{"stationName":"Dawlish Warren","lat":50.599311,"long":-3.443903,"crsCode":"DWW","constituentCountry":"england"},{"stationName":"Deal","lat":51.223129,"long":1.398559,"crsCode":"DEA","constituentCountry":"england"},{"stationName":"Dean","lat":51.042629,"long":-1.634802,"crsCode":"DEN","constituentCountry":"england"},{"stationName":"Deansgate","lat":53.473961,"long":-2.250061,"crsCode":"DGT","constituentCountry":"england"},{"stationName":"Deganwy","lat":53.294739,"long":-3.833424,"crsCode":"DGY","constituentCountry":"wales"},{"stationName":"Deighton","lat":53.669018,"long":-1.751739,"crsCode":"DHN","constituentCountry":"england"},{"stationName":"Delamere","lat":53.228767,"long":-2.666577,"crsCode":"DLM","constituentCountry":"england"},{"stationName":"Denby Dale","lat":53.572628,"long":-1.663215,"crsCode":"DBD","constituentCountry":"england"},{"stationName":"Denham","lat":51.578495,"long":-0.497633,"crsCode":"DNM","constituentCountry":"england"},{"stationName":"Denham Golf Club","lat":51.580544,"long":-0.517774,"crsCode":"DGC","constituentCountry":"england"},{"stationName":"Denmark Hill","lat":51.468243,"long":-0.089475,"crsCode":"DMK","constituentCountry":"england"},{"stationName":"Dent","lat":54.282597,"long":-2.363987,"crsCode":"DNT","constituentCountry":"england"},{"stationName":"Denton","lat":53.457087,"long":-2.131648,"crsCode":"DTN","constituentCountry":"england"},{"stationName":"Deptford","lat":51.478897,"long":-0.02711,"crsCode":"DEP","constituentCountry":"england"},{"stationName":"Derby","lat":52.916381,"long":-1.462555,"crsCode":"DBY","constituentCountry":"england"},{"stationName":"Derby Road","lat":52.04953,"long":1.182332,"crsCode":"DBR","constituentCountry":"england"},{"stationName":"Devonport","lat":50.378132,"long":-4.171534,"crsCode":"DPT","constituentCountry":"england"},{"stationName":"Dewsbury","lat":53.692089,"long":-1.633487,"crsCode":"DEW","constituentCountry":"england"},{"stationName":"Didcot Parkway","lat":51.611275,"long":-1.242614,"crsCode":"DID","constituentCountry":"england"},{"stationName":"Digby & Sowton","lat":50.716434,"long":-3.474574,"crsCode":"DIG","constituentCountry":"england"},{"stationName":"Dilton Marsh","lat":51.248928,"long":-2.207723,"crsCode":"DMH","constituentCountry":"england"},{"stationName":"Dinas Powys","lat":51.431614,"long":-3.21839,"crsCode":"DNS","constituentCountry":"wales"},{"stationName":"Dinas Rhondda","lat":51.617073,"long":-3.437123,"crsCode":"DMG","constituentCountry":"wales"},{"stationName":"Dingle Road","lat":51.440109,"long":-3.179776,"crsCode":"DGL","constituentCountry":"wales"},{"stationName":"Dingwall","lat":57.594238,"long":-4.422611,"crsCode":"DIN","constituentCountry":"scotland"},{"stationName":"Dinsdale","lat":54.51474,"long":-1.467051,"crsCode":"DND","constituentCountry":"england"},{"stationName":"Dinting","lat":53.449382,"long":-1.970276,"crsCode":"DTG","constituentCountry":"england"},{"stationName":"Disley","lat":53.358146,"long":-2.042465,"crsCode":"DSL","constituentCountry":"england"},{"stationName":"Diss","lat":52.373096,"long":1.123274,"crsCode":"DIS","constituentCountry":"england"},{"stationName":"Dockyard","lat":50.382553,"long":-4.175957,"crsCode":"DOC","constituentCountry":"england"},{"stationName":"Dodworth","lat":53.545216,"long":-1.530617,"crsCode":"DOD","constituentCountry":"england"},{"stationName":"Dolau","lat":52.295223,"long":-3.263955,"crsCode":"DOL","constituentCountry":"wales"},{"stationName":"Doleham","lat":50.918686,"long":0.610732,"crsCode":"DLH","constituentCountry":"england"},{"stationName":"Dolgarrog","lat":53.186123,"long":-3.822808,"crsCode":"DLG","constituentCountry":"wales"},{"stationName":"Dolwyddelan","lat":53.052105,"long":-3.884288,"crsCode":"DWD","constituentCountry":"wales"},{"stationName":"Doncaster","lat":53.521469,"long":-1.140225,"crsCode":"DON","constituentCountry":"england"},{"stationName":"Dorchester South","lat":50.708752,"long":-2.437593,"crsCode":"DCH","constituentCountry":"england"},{"stationName":"Dorchester West","lat":50.710526,"long":-2.443274,"crsCode":"DCW","constituentCountry":"england"},{"stationName":"Dore & Totley","lat":53.327625,"long":-1.514997,"crsCode":"DOR","constituentCountry":"england"},{"stationName":"Dorking","lat":51.241615,"long":-0.323822,"crsCode":"DKG","constituentCountry":"england"},{"stationName":"Dorking Deepdene","lat":51.238918,"long":-0.323921,"crsCode":"DPD","constituentCountry":"england"},{"stationName":"Dorking West","lat":51.236443,"long":-0.339762,"crsCode":"DKT","constituentCountry":"england"},{"stationName":"Dormans","lat":51.15567,"long":-0.005183,"crsCode":"DMS","constituentCountry":"england"},{"stationName":"Dorridge","lat":52.371861,"long":-1.753209,"crsCode":"DDG","constituentCountry":"england"},{"stationName":"Dove Holes","lat":53.300005,"long":-1.890678,"crsCode":"DVH","constituentCountry":"england"},{"stationName":"Dover Priory","lat":51.125988,"long":1.304227,"crsCode":"DVP","constituentCountry":"england"},{"stationName":"Dovercourt","lat":51.938892,"long":1.280724,"crsCode":"DVC","constituentCountry":"england"},{"stationName":"Dovey Junction","lat":52.564133,"long":-3.925273,"crsCode":"DVY","constituentCountry":"wales"},{"stationName":"Downham Market","lat":52.60471,"long":0.365751,"crsCode":"DOW","constituentCountry":"england"},{"stationName":"Drayton Green","lat":51.516326,"long":-0.330089,"crsCode":"DRG","constituentCountry":"england"},{"stationName":"Drayton Park","lat":51.552124,"long":-0.104723,"crsCode":"DYP","constituentCountry":"england"},{"stationName":"Drem","lat":56.005981,"long":-2.785752,"crsCode":"DRM","constituentCountry":"scotland"},{"stationName":"Driffield","lat":54.001526,"long":-0.434627,"crsCode":"DRF","constituentCountry":"england"},{"stationName":"Drigg","lat":54.376968,"long":-3.444066,"crsCode":"DRI","constituentCountry":"england"},{"stationName":"Droitwich Spa","lat":52.26862,"long":-2.158239,"crsCode":"DTW","constituentCountry":"england"},{"stationName":"Dronfield","lat":53.301357,"long":-1.468768,"crsCode":"DRO","constituentCountry":"england"},{"stationName":"Drumchapel","lat":55.904926,"long":-4.364204,"crsCode":"DMC","constituentCountry":"scotland"},{"stationName":"Drumfrochar","lat":55.941292,"long":-4.774822,"crsCode":"DFR","constituentCountry":"scotland"},{"stationName":"Drumgelloch","lat":55.867233,"long":-3.95114,"crsCode":"DRU","constituentCountry":"scotland"},{"stationName":"Drumry","lat":55.904495,"long":-4.386583,"crsCode":"DMY","constituentCountry":"scotland"},{"stationName":"Duddeston","lat":52.488018,"long":-1.871842,"crsCode":"DUD","constituentCountry":"england"},{"stationName":"Dudley Port","lat":52.524517,"long":-2.049401,"crsCode":"DDP","constituentCountry":"england"},{"stationName":"Duffield","lat":52.987713,"long":-1.486035,"crsCode":"DFI","constituentCountry":"england"},{"stationName":"Duirinish","lat":57.319847,"long":-5.692103,"crsCode":"DRN","constituentCountry":"scotland"},{"stationName":"Duke Street","lat":55.859207,"long":-4.212814,"crsCode":"DST","constituentCountry":"scotland"},{"stationName":"Dullingham","lat":52.200943,"long":0.366197,"crsCode":"DUL","constituentCountry":"england"},{"stationName":"Dumbarton Central","lat":55.946705,"long":-4.56697,"crsCode":"DBC","constituentCountry":"scotland"},{"stationName":"Dumbarton East","lat":55.942478,"long":-4.55387,"crsCode":"DBE","constituentCountry":"scotland"},{"stationName":"Dumbreck","lat":55.841255,"long":-4.309216,"crsCode":"DUM","constituentCountry":"scotland"},{"stationName":"Dumfries","lat":55.072395,"long":-3.605261,"crsCode":"DMF","constituentCountry":"scotland"},{"stationName":"Dumpton Park","lat":51.345566,"long":1.426291,"crsCode":"DMP","constituentCountry":"england"},{"stationName":"Dunbar","lat":55.998428,"long":-2.514625,"crsCode":"DUN","constituentCountry":"scotland"},{"stationName":"Dunblane","lat":56.186001,"long":-3.967296,"crsCode":"DBL","constituentCountry":"scotland"},{"stationName":"Duncraig","lat":57.336727,"long":-5.637282,"crsCode":"DCG","constituentCountry":"scotland"},{"stationName":"Dundee","lat":56.456669,"long":-2.970576,"crsCode":"DEE","constituentCountry":"scotland"},{"stationName":"Dunfermline City","lat":56.068233,"long":-3.452033,"crsCode":"DFE","constituentCountry":"scotland"},{"stationName":"Dunfermline Queen Margaret","lat":56.080706,"long":-3.42164,"crsCode":"DFL","constituentCountry":"scotland"},{"stationName":"Dunkeld & Birnam","lat":56.557301,"long":-3.578097,"crsCode":"DKD","constituentCountry":"scotland"},{"stationName":"Dunlop","lat":55.711926,"long":-4.532435,"crsCode":"DNL","constituentCountry":"scotland"},{"stationName":"Dunrobin Castle","lat":57.986111,"long":-3.946595,"crsCode":"DNO","constituentCountry":"scotland"},{"stationName":"Dunston","lat":54.952164,"long":-1.648648,"crsCode":"DOT","constituentCountry":"england"},{"stationName":"Dunton Green","lat":51.296425,"long":0.171616,"crsCode":"DNG","constituentCountry":"england"},{"stationName":"Durham","lat":54.779408,"long":-1.581746,"crsCode":"DHM","constituentCountry":"england"},{"stationName":"Durrington-On-Sea","lat":50.817463,"long":-0.411463,"crsCode":"DUR","constituentCountry":"england"},{"stationName":"Dyce","lat":57.205002,"long":-2.191978,"crsCode":"DYC","constituentCountry":"scotland"},{"stationName":"Dyffryn Ardudwy","lat":52.78857,"long":-4.104242,"crsCode":"DYF","constituentCountry":"wales"},{"stationName":"Eaglescliffe","lat":54.529449,"long":-1.349426,"crsCode":"EAG","constituentCountry":"england"},{"stationName":"Ealing Broadway","lat":51.51466,"long":-0.300843,"crsCode":"EAL","constituentCountry":"england"},{"stationName":"Earlestown","lat":53.451139,"long":-2.637674,"crsCode":"ERL","constituentCountry":"england"},{"stationName":"Earley","lat":51.441051,"long":-0.917989,"crsCode":"EAR","constituentCountry":"england"},{"stationName":"Earlsfield","lat":51.441929,"long":-0.188423,"crsCode":"EAD","constituentCountry":"england"},{"stationName":"Earlswood (Surrey)","lat":51.227631,"long":-0.171078,"crsCode":"ELD","constituentCountry":"england"},{"stationName":"Earlswood (West Midlands)","lat":52.366638,"long":-1.861907,"crsCode":"EWD","constituentCountry":"england"},{"stationName":"East Boldon","lat":54.9468,"long":-1.420767,"crsCode":"EBL","constituentCountry":"england"},{"stationName":"East Croydon","lat":51.375679,"long":-0.093335,"crsCode":"ECR","constituentCountry":"england"},{"stationName":"East Didsbury","lat":53.410206,"long":-2.22111,"crsCode":"EDY","constituentCountry":"england"},{"stationName":"East Dulwich","lat":51.460911,"long":-0.081151,"crsCode":"EDW","constituentCountry":"england"},{"stationName":"East Farleigh","lat":51.255112,"long":0.48498,"crsCode":"EFL","constituentCountry":"england"},{"stationName":"East Garforth","lat":53.791622,"long":-1.363933,"crsCode":"EGF","constituentCountry":"england"},{"stationName":"East Grinstead","lat":51.126213,"long":-0.017887,"crsCode":"EGR","constituentCountry":"england"},{"stationName":"East Kilbride","lat":55.765388,"long":-4.18199,"crsCode":"EKL","constituentCountry":"scotland"},{"stationName":"East Linton","lat":55.9856,"long":-2.6579,"crsCode":"ELT","constituentCountry":"scotland"},{"stationName":"East Malling","lat":51.285748,"long":0.439308,"crsCode":"EML","constituentCountry":"england"},{"stationName":"East Midlands Parkway","lat":52.862,"long":-1.263,"crsCode":"EMD","constituentCountry":"england"},{"stationName":"East Tilbury","lat":51.485065,"long":0.412479,"crsCode":"ETL","constituentCountry":"england"},{"stationName":"East Worthing","lat":50.822071,"long":-0.354517,"crsCode":"EWR","constituentCountry":"england"},{"stationName":"Eastbourne","lat":50.769085,"long":0.281847,"crsCode":"EBN","constituentCountry":"england"},{"stationName":"Eastbrook","lat":51.437126,"long":-3.207031,"crsCode":"EBK","constituentCountry":"wales"},{"stationName":"Easterhouse","lat":55.860157,"long":-4.107389,"crsCode":"EST","constituentCountry":"scotland"},{"stationName":"Eastham Rake","lat":53.307532,"long":-2.9812,"crsCode":"ERA","constituentCountry":"england"},{"stationName":"Eastleigh","lat":50.968559,"long":-1.350563,"crsCode":"ESL","constituentCountry":"england"},{"stationName":"Eastrington","lat":53.75481,"long":-0.786612,"crsCode":"EGN","constituentCountry":"england"},{"stationName":"Ebbsfleet International","lat":51.443009,"long":0.320887,"crsCode":"EBD","constituentCountry":"england"},{"stationName":"Ebbw Vale Parkway","lat":51.7573,"long":-3.1965,"crsCode":"EBV","constituentCountry":"wales"},{"stationName":"Ebbw Vale Town","lat":51.782007,"long":-3.205996,"crsCode":"EBB","constituentCountry":"wales"},{"stationName":"Eccles","lat":53.485443,"long":-2.333014,"crsCode":"ECC","constituentCountry":"england"},{"stationName":"Eccles Road","lat":52.470585,"long":0.969656,"crsCode":"ECS","constituentCountry":"england"},{"stationName":"Eccleston Park","lat":53.430665,"long":-2.780555,"crsCode":"ECL","constituentCountry":"england"},{"stationName":"Edale","lat":53.36477,"long":-1.817395,"crsCode":"EDL","constituentCountry":"england"},{"stationName":"Eden Park","lat":51.390762,"long":-0.026587,"crsCode":"EDN","constituentCountry":"england"},{"stationName":"Edenbridge","lat":51.208508,"long":0.060099,"crsCode":"EBR","constituentCountry":"england"},{"stationName":"Edenbridge Town","lat":51.200287,"long":0.06689,"crsCode":"EBT","constituentCountry":"england"},{"stationName":"Edge Hill","lat":53.402663,"long":-2.946986,"crsCode":"EDG","constituentCountry":"england"},{"stationName":"Edinburgh Gateway","lat":55.941,"long":-3.32,"crsCode":"EGY","constituentCountry":"scotland"},{"stationName":"Edinburgh Park","lat":55.927615,"long":-3.307829,"crsCode":"EDP","constituentCountry":"scotland"},{"stationName":"Edinburgh Waverley","lat":55.952442,"long":-3.188236,"crsCode":"EDB","constituentCountry":"scotland"},{"stationName":"Edmonton Green","lat":51.623802,"long":-0.059665,"crsCode":"EDR","constituentCountry":"england"},{"stationName":"Effingham Junction","lat":51.291504,"long":-0.419536,"crsCode":"EFF","constituentCountry":"england"},{"stationName":"Eggesford","lat":50.887848,"long":-3.875235,"crsCode":"EGG","constituentCountry":"england"},{"stationName":"Egham","lat":51.428925,"long":-0.545701,"crsCode":"EGH","constituentCountry":"england"},{"stationName":"Egton","lat":54.437679,"long":-0.761896,"crsCode":"EGT","constituentCountry":"england"},{"stationName":"Elephant & Castle","lat":51.494469,"long":-0.098462,"crsCode":"EPH","constituentCountry":"england"},{"stationName":"Elgin","lat":57.64299,"long":-3.31163,"crsCode":"ELG","constituentCountry":"scotland"},{"stationName":"Ellesmere Port","lat":53.282097,"long":-2.895403,"crsCode":"ELP","constituentCountry":"england"},{"stationName":"Elmers End","lat":51.398335,"long":-0.049263,"crsCode":"ELE","constituentCountry":"england"},{"stationName":"Elmstead Woods","lat":51.417435,"long":0.043594,"crsCode":"ESD","constituentCountry":"england"},{"stationName":"Elmswell","lat":52.238201,"long":0.911625,"crsCode":"ESW","constituentCountry":"england"},{"stationName":"Elsecar","lat":53.498924,"long":-1.428617,"crsCode":"ELR","constituentCountry":"england"},{"stationName":"Elsenham","lat":51.92038,"long":0.22779,"crsCode":"ESM","constituentCountry":"england"},{"stationName":"Elstree & Borehamwood","lat":51.652836,"long":-0.279779,"crsCode":"ELS","constituentCountry":"england"},{"stationName":"Eltham","lat":51.455101,"long":0.0496,"crsCode":"ELW","constituentCountry":"england"},{"stationName":"Elton & Orston","lat":52.951843,"long":-0.855362,"crsCode":"ELO","constituentCountry":"england"},{"stationName":"Ely","lat":52.390846,"long":0.266105,"crsCode":"ELY","constituentCountry":"england"},{"stationName":"Emerson Park","lat":51.56889,"long":0.220658,"crsCode":"EMP","constituentCountry":"england"},{"stationName":"Emsworth","lat":50.851326,"long":-0.938784,"crsCode":"EMS","constituentCountry":"england"},{"stationName":"Energlyn & Churchill Park","lat":51.5838,"long":-3.2287,"crsCode":"ECP","constituentCountry":"wales"},{"stationName":"Enfield Chase","lat":51.652607,"long":-0.090404,"crsCode":"ENC","constituentCountry":"england"},{"stationName":"Enfield Lock","lat":51.671379,"long":-0.028875,"crsCode":"ENL","constituentCountry":"england"},{"stationName":"Enfield Town","lat":51.651524,"long":-0.078891,"crsCode":"ENF","constituentCountry":"england"},{"stationName":"Entwistle","lat":53.655591,"long":-2.413983,"crsCode":"ENT","constituentCountry":"england"},{"stationName":"Epsom","lat":51.334339,"long":-0.268756,"crsCode":"EPS","constituentCountry":"england"},{"stationName":"Epsom Downs","lat":51.321365,"long":-0.243411,"crsCode":"EPD","constituentCountry":"england"},{"stationName":"Erdington","lat":52.528435,"long":-1.839297,"crsCode":"ERD","constituentCountry":"england"},{"stationName":"Eridge","lat":51.089024,"long":0.200452,"crsCode":"ERI","constituentCountry":"england"},{"stationName":"Erith","lat":51.481621,"long":0.174651,"crsCode":"ERH","constituentCountry":"england"},{"stationName":"Esher","lat":51.379642,"long":-0.354714,"crsCode":"ESH","constituentCountry":"england"},{"stationName":"Eskbank","lat":55.88956,"long":-3.07845,"crsCode":"EKB","constituentCountry":"scotland"},{"stationName":"Essex Road","lat":51.540302,"long":-0.096552,"crsCode":"EXR","constituentCountry":"england"},{"stationName":"Etchingham","lat":51.010479,"long":0.441935,"crsCode":"ETC","constituentCountry":"england"},{"stationName":"Euxton Balshaw Lane","lat":53.670071,"long":-2.675045,"crsCode":"EBA","constituentCountry":"england"},{"stationName":"Evesham","lat":52.098793,"long":-1.947413,"crsCode":"EVE","constituentCountry":"england"},{"stationName":"Ewell East","lat":51.345612,"long":-0.24106,"crsCode":"EWE","constituentCountry":"england"},{"stationName":"Ewell West","lat":51.349445,"long":-0.256711,"crsCode":"EWW","constituentCountry":"england"},{"stationName":"Exeter Central","lat":50.726471,"long":-3.532973,"crsCode":"EXC","constituentCountry":"england"},{"stationName":"Exeter St Davids","lat":50.729019,"long":-3.544387,"crsCode":"EXD","constituentCountry":"england"},{"stationName":"Exeter St Thomas","lat":50.716529,"long":-3.538759,"crsCode":"EXT","constituentCountry":"england"},{"stationName":"Exhibition Centre","lat":55.860619,"long":-4.283207,"crsCode":"EXG","constituentCountry":"scotland"},{"stationName":"Exmouth","lat":50.620937,"long":-3.415035,"crsCode":"EXM","constituentCountry":"england"},{"stationName":"Exton","lat":50.668255,"long":-3.443337,"crsCode":"EXN","constituentCountry":"england"},{"stationName":"Eynsford","lat":51.362377,"long":0.203465,"crsCode":"EYN","constituentCountry":"england"},{"stationName":"Fairbourne","lat":52.696018,"long":-4.049464,"crsCode":"FRB","constituentCountry":"wales"},{"stationName":"Fairfield","lat":53.471215,"long":-2.14581,"crsCode":"FRF","constituentCountry":"england"},{"stationName":"Fairlie","lat":55.752514,"long":-4.853834,"crsCode":"FRL","constituentCountry":"scotland"},{"stationName":"Fairwater","lat":51.491714,"long":-3.232963,"crsCode":"FRW","constituentCountry":"wales"},{"stationName":"Falconwood","lat":51.459087,"long":0.078571,"crsCode":"FCN","constituentCountry":"england"},{"stationName":"Falkirk Grahamston","lat":56.002735,"long":-3.786359,"crsCode":"FKG","constituentCountry":"scotland"},{"stationName":"Falkirk High","lat":55.991863,"long":-3.792276,"crsCode":"FKK","constituentCountry":"scotland"},{"stationName":"Falls of Cruachan","lat":56.386242,"long":-5.114992,"crsCode":"FOC","constituentCountry":"scotland"},{"stationName":"Falmer","lat":50.862064,"long":-0.087364,"crsCode":"FMR","constituentCountry":"england"},{"stationName":"Falmouth Docks","lat":50.15075,"long":-5.0559,"crsCode":"FAL","constituentCountry":"england"},{"stationName":"Falmouth Town","lat":50.148392,"long":-5.065443,"crsCode":"FMT","constituentCountry":"england"},{"stationName":"Fareham","lat":50.853352,"long":-1.19162,"crsCode":"FRM","constituentCountry":"england"},{"stationName":"Farnborough Main","lat":51.296471,"long":-0.756436,"crsCode":"FNB","constituentCountry":"england"},{"stationName":"Farnborough North","lat":51.301723,"long":-0.743385,"crsCode":"FNN","constituentCountry":"england"},{"stationName":"Farncombe","lat":51.197639,"long":-0.604522,"crsCode":"FNC","constituentCountry":"england"},{"stationName":"Farnham","lat":51.211422,"long":-0.793093,"crsCode":"FNH","constituentCountry":"england"},{"stationName":"Farningham Road","lat":51.401337,"long":0.235533,"crsCode":"FNR","constituentCountry":"england"},{"stationName":"Farnworth","lat":53.549999,"long":-2.387857,"crsCode":"FNW","constituentCountry":"england"},{"stationName":"Farringdon","lat":51.520071,"long":-0.104665,"crsCode":"ZFD","constituentCountry":"england"},{"stationName":"Fauldhouse","lat":55.822163,"long":-3.719006,"crsCode":"FLD","constituentCountry":"scotland"},{"stationName":"Faversham","lat":51.311436,"long":0.891278,"crsCode":"FAV","constituentCountry":"england"},{"stationName":"Faygate","lat":51.095943,"long":-0.263403,"crsCode":"FGT","constituentCountry":"england"},{"stationName":"Fazakerley","lat":53.469063,"long":-2.936729,"crsCode":"FAZ","constituentCountry":"england"},{"stationName":"Fearn","lat":57.777828,"long":-3.994245,"crsCode":"FRN","constituentCountry":"scotland"},{"stationName":"Featherstone","lat":53.679253,"long":-1.359562,"crsCode":"FEA","constituentCountry":"england"},{"stationName":"Felixstowe","lat":51.967449,"long":1.352707,"crsCode":"FLX","constituentCountry":"england"},{"stationName":"Feltham","lat":51.447845,"long":-0.40983,"crsCode":"FEL","constituentCountry":"england"},{"stationName":"Feniton","lat":50.787022,"long":-3.285259,"crsCode":"FNT","constituentCountry":"england"},{"stationName":"Fenny Stratford","lat":52.000103,"long":-0.716636,"crsCode":"FEN","constituentCountry":"england"},{"stationName":"Fernhill","lat":51.685932,"long":-3.394469,"crsCode":"FER","constituentCountry":"wales"},{"stationName":"Ferriby","lat":53.716625,"long":-0.508878,"crsCode":"FRY","constituentCountry":"england"},{"stationName":"Ferryside","lat":51.76833,"long":-4.36952,"crsCode":"FYS","constituentCountry":"wales"},{"stationName":"Ffairfach","lat":51.87244,"long":-3.992916,"crsCode":"FFA","constituentCountry":"wales"},{"stationName":"Filey","lat":54.209946,"long":-0.293351,"crsCode":"FIL","constituentCountry":"england"},{"stationName":"Filton Abbey Wood","lat":51.509438,"long":-2.561933,"crsCode":"FIT","constituentCountry":"england"},{"stationName":"Finchley Road & Frognal","lat":51.550198,"long":-0.183324,"crsCode":"FNY","constituentCountry":"england"},{"stationName":"Finsbury Park","lat":51.564724,"long":-0.105642,"crsCode":"FPK","constituentCountry":"england"},{"stationName":"Finstock","lat":51.85305,"long":-1.47003,"crsCode":"FIN","constituentCountry":"england"},{"stationName":"Fishbourne","lat":50.839352,"long":-0.815495,"crsCode":"FSB","constituentCountry":"england"},{"stationName":"Fishersgate","lat":50.834469,"long":-0.219161,"crsCode":"FSG","constituentCountry":"england"},{"stationName":"Fishguard & Goodwick","lat":52.0035,"long":-4.9948,"crsCode":"FGW","constituentCountry":"wales"},{"stationName":"Fishguard Harbour","lat":52.011505,"long":-4.985713,"crsCode":"FGH","constituentCountry":"wales"},{"stationName":"Fiskerton","lat":53.060253,"long":-0.912181,"crsCode":"FSK","constituentCountry":"england"},{"stationName":"Fitzwilliam","lat":53.632587,"long":-1.375391,"crsCode":"FZW","constituentCountry":"england"},{"stationName":"Five Ways","lat":52.470078,"long":-1.913116,"crsCode":"FWY","constituentCountry":"england"},{"stationName":"Fleet","lat":51.290947,"long":-0.831169,"crsCode":"FLE","constituentCountry":"england"},{"stationName":"Flimby","lat":54.689815,"long":-3.520544,"crsCode":"FLM","constituentCountry":"england"},{"stationName":"Flint","lat":53.249516,"long":-3.13302,"crsCode":"FLN","constituentCountry":"wales"},{"stationName":"Flitwick","lat":52.003457,"long":-0.4952,"crsCode":"FLT","constituentCountry":"england"},{"stationName":"Flixton","lat":53.443746,"long":-2.383878,"crsCode":"FLI","constituentCountry":"england"},{"stationName":"Flowery Field","lat":53.461737,"long":-2.080965,"crsCode":"FLF","constituentCountry":"england"},{"stationName":"Folkestone Central","lat":51.082985,"long":1.168331,"crsCode":"FKC","constituentCountry":"england"},{"stationName":"Folkestone West","lat":51.085163,"long":1.154209,"crsCode":"FKW","constituentCountry":"england"},{"stationName":"Ford","lat":50.829506,"long":-0.578611,"crsCode":"FOD","constituentCountry":"england"},{"stationName":"Forest Gate","lat":51.549976,"long":0.023568,"crsCode":"FOG","constituentCountry":"england"},{"stationName":"Forest Hill","lat":51.438869,"long":-0.053297,"crsCode":"FOH","constituentCountry":"england"},{"stationName":"Formby","lat":53.553796,"long":-3.070706,"crsCode":"FBY","constituentCountry":"england"},{"stationName":"Forres","lat":57.609661,"long":-3.62847,"crsCode":"FOR","constituentCountry":"scotland"},{"stationName":"Forsinard","lat":58.356998,"long":-3.896903,"crsCode":"FRS","constituentCountry":"scotland"},{"stationName":"Fort Matilda","lat":55.958809,"long":-4.7953,"crsCode":"FTM","constituentCountry":"scotland"},{"stationName":"Fort William","lat":56.820625,"long":-5.106721,"crsCode":"FTW","constituentCountry":"scotland"},{"stationName":"Four Oaks","lat":52.579662,"long":-1.8273,"crsCode":"FOK","constituentCountry":"england"},{"stationName":"Foxfield","lat":54.259041,"long":-3.215796,"crsCode":"FOX","constituentCountry":"england"},{"stationName":"Foxton","lat":52.119526,"long":0.056572,"crsCode":"FXN","constituentCountry":"england"},{"stationName":"Frant","lat":51.104321,"long":0.294034,"crsCode":"FRT","constituentCountry":"england"},{"stationName":"Fratton","lat":50.795818,"long":-1.073422,"crsCode":"FTN","constituentCountry":"england"},{"stationName":"Freshfield","lat":53.566494,"long":-3.072014,"crsCode":"FRE","constituentCountry":"england"},{"stationName":"Freshford","lat":51.342251,"long":-2.30146,"crsCode":"FFD","constituentCountry":"england"},{"stationName":"Frimley","lat":51.311653,"long":-0.747426,"crsCode":"FML","constituentCountry":"england"},{"stationName":"Frinton-On-Sea","lat":51.838314,"long":1.242907,"crsCode":"FRI","constituentCountry":"england"},