[{"stationName":"Abbey Wood","lat":51.490719,"long":0.120343,"isAirport":false,"crsCode":"ABW","iataAirportCode":null},{"stationName":"Aber","lat":51.575363,"long":-3.23089,"isAirport":false,"crsCode":"ABE","iataAirportCode":null},{"stationName":"Abercynon","lat":51.64262,"long":-3.329549,"isAirport":false,"crsCode":"ACY","iataAirportCode":null},{"stationName":"Aberdare","lat":51.715019,"long":-3.44313,"isAirport":false,"crsCode":"ABA","iataAirportCode":null},{"stationName":"Aberdeen","lat":57.143127,"long":-2.097464,"isAirport":false,"crsCode":"ABD","iataAirportCode":null},{"stationName":"Aberdour","lat":56.054646,"long":-3.300575,"isAirport":false,"crsCode":"AUR","iataAirportCode":null},{"stationName":"Aberdovey","lat":52.543934,"long":-4.057118,"isAirport":false,"crsCode":"AVY","iataAirportCode":null},{"stationName":"Abererch","lat":52.898567,"long":-4.37423,"isAirport":false,"crsCode":"ABH","iataAirportCode":null},{"stationName":"Abergavenny","lat":51.81665,"long":-3.009679,"isAirport":false,"crsCode":"AGV","iataAirportCode":null},{"stationName":"Abergele & Pensarn","lat":53.294758,"long":-3.581343,"isAirport":false,"crsCode":"AGL","iataAirportCode":null},{"stationName":"Aberystwyth","lat":52.414017,"long":-4.081946,"isAirport":false,"crsCode":"AYW","iataAirportCode":null},{"stationName":"Accrington","lat":53.753193,"long":-2.370016,"isAirport":false,"crsCode":"ACR","iataAirportCode":null},{"stationName":"Achanalt","lat":57.609921,"long":-4.914243,"isAirport":false,"crsCode":"AAT","iataAirportCode":null},{"stationName":"Achnasheen","lat":57.579205,"long":-5.072421,"isAirport":false,"crsCode":"ACN","iataAirportCode":null},{"stationName":"Achnashellach","lat":57.482697,"long":-5.333001,"isAirport":false,"crsCode":"ACH","iataAirportCode":null},{"stationName":"Acklington","lat":55.307129,"long":-1.651816,"isAirport":false,"crsCode":"ACK","iataAirportCode":null},{"stationName":"Acle","lat":52.634647,"long":1.543981,"isAirport":false,"crsCode":"ACL","iataAirportCode":null},{"stationName":"Acocks Green","lat":52.449291,"long":-1.81898,"isAirport":false,"crsCode":"ACG","iataAirportCode":null},{"stationName":"Acton Bridge","lat":53.265961,"long":-2.602689,"isAirport":false,"crsCode":"ACB","iataAirportCode":null},{"stationName":"Acton Central","lat":51.508717,"long":-0.263601,"isAirport":false,"crsCode":"ACC","iataAirportCode":null},{"stationName":"Acton Main Line","lat":51.516865,"long":-0.26762,"isAirport":false,"crsCode":"AML","iataAirportCode":null},{"stationName":"Adderley Park","lat":52.483505,"long":-1.854184,"isAirport":false,"crsCode":"ADD","iataAirportCode":null},{"stationName":"Addiewell","lat":55.843449,"long":-3.60655,"isAirport":false,"crsCode":"ADW","iataAirportCode":null},{"stationName":"Addlestone","lat":51.372414,"long":-0.48571,"isAirport":false,"crsCode":"ASN","iataAirportCode":null},{"stationName":"Adisham","lat":51.241352,"long":1.199277,"isAirport":false,"crsCode":"ADM","iataAirportCode":null},{"stationName":"Adlington (Cheshire)","lat":53.319542,"long":-2.133571,"isAirport":false,"crsCode":"ADC","iataAirportCode":null},{"stationName":"Adlington (Lancashire)","lat":53.612926,"long":-2.603084,"isAirport":false,"crsCode":"ADL","iataAirportCode":null},{"stationName":"Adwick","lat":53.572994,"long":-1.181465,"isAirport":false,"crsCode":"AWK","iataAirportCode":null},{"stationName":"Aigburth","lat":53.364614,"long":-2.927041,"isAirport":false,"crsCode":"AIG","iataAirportCode":null},{"stationName":"Ainsdale","lat":53.601818,"long":-3.042691,"isAirport":false,"crsCode":"ANS","iataAirportCode":null},{"stationName":"Aintree","lat":53.473995,"long":-2.956687,"isAirport":false,"crsCode":"AIN","iataAirportCode":null},{"stationName":"Airbles","lat":55.782504,"long":-3.994447,"isAirport":false,"crsCode":"AIR","iataAirportCode":null},{"stationName":"Airdrie","lat":55.864029,"long":-3.982952,"isAirport":false,"crsCode":"ADR","iataAirportCode":null},{"stationName":"Albany Park","lat":51.435745,"long":0.126427,"isAirport":false,"crsCode":"AYP","iataAirportCode":null},{"stationName":"Albrighton","lat":52.637917,"long":-2.268913,"isAirport":false,"crsCode":"ALB","iataAirportCode":null},{"stationName":"Alderley Edge","lat":53.303762,"long":-2.236812,"isAirport":false,"crsCode":"ALD","iataAirportCode":null},{"stationName":"Aldermaston","lat":51.402047,"long":-1.136972,"isAirport":false,"crsCode":"AMT","iataAirportCode":null},{"stationName":"Aldershot","lat":51.246151,"long":-0.760657,"isAirport":false,"crsCode":"AHT","iataAirportCode":null},{"stationName":"Aldrington","lat":50.836601,"long":-0.182151,"isAirport":false,"crsCode":"AGT","iataAirportCode":null},{"stationName":"Alexandra Palace","lat":51.598225,"long":-0.120129,"isAirport":false,"crsCode":"AAP","iataAirportCode":null},{"stationName":"Alexandra Parade","lat":55.863724,"long":-4.211465,"isAirport":false,"crsCode":"AXP","iataAirportCode":null},{"stationName":"Alexandria","lat":55.98513,"long":-4.577534,"isAirport":false,"crsCode":"ALX","iataAirportCode":null},{"stationName":"Alfreton","lat":53.100414,"long":-1.369689,"isAirport":false,"crsCode":"ALF","iataAirportCode":null},{"stationName":"Allens West","lat":54.524128,"long":-1.363418,"isAirport":false,"crsCode":"ALW","iataAirportCode":null},{"stationName":"Alloa","lat":56.1179,"long":-3.7872,"isAirport":false,"crsCode":"ALO","iataAirportCode":null},{"stationName":"Alness","lat":57.694477,"long":-4.249743,"isAirport":false,"crsCode":"ASS","iataAirportCode":null},{"stationName":"Alnmouth","lat":55.392456,"long":-1.636858,"isAirport":false,"crsCode":"ALM","iataAirportCode":null},{"stationName":"Alresford","lat":51.853828,"long":0.997114,"isAirport":false,"crsCode":"ALR","iataAirportCode":null},{"stationName":"Alsager","lat":53.093054,"long":-2.29861,"isAirport":false,"crsCode":"ASG","iataAirportCode":null},{"stationName":"Althorne","lat":51.647526,"long":0.753603,"isAirport":false,"crsCode":"ALN","iataAirportCode":null},{"stationName":"Althorpe","lat":53.585262,"long":-0.732558,"isAirport":false,"crsCode":"ALP","iataAirportCode":null},{"stationName":"Altnabreac","lat":58.388439,"long":-3.705279,"isAirport":false,"crsCode":"ABC","iataAirportCode":null},{"stationName":"Alton","lat":51.151947,"long":-0.967658,"isAirport":false,"crsCode":"AON","iataAirportCode":null},{"stationName":"Altrincham","lat":53.3874,"long":-2.347212,"isAirport":false,"crsCode":"ALT","iataAirportCode":null},{"stationName":"Alvechurch","lat":52.346607,"long":-1.967854,"isAirport":false,"crsCode":"ALV","iataAirportCode":null},{"stationName":"Ambergate","lat":53.060501,"long":-1.4807,"isAirport":false,"crsCode":"AMB","iataAirportCode":null},{"stationName":"Amberley","lat":50.896507,"long":-0.542446,"isAirport":false,"crsCode":"AMY","iataAirportCode":null},{"stationName":"Amersham","lat":51.67439,"long":-0.60613,"isAirport":false,"crsCode":"AMR","iataAirportCode":null},{"stationName":"Ammanford","lat":51.795933,"long":-3.996783,"isAirport":false,"crsCode":"AMF","iataAirportCode":null},{"stationName":"Ancaster","lat":52.987888,"long":-0.535596,"isAirport":false,"crsCode":"ANC","iataAirportCode":null},{"stationName":"Anderston","lat":55.859924,"long":-4.271969,"isAirport":false,"crsCode":"AND","iataAirportCode":null},{"stationName":"Andover","lat":51.212048,"long":-1.493167,"isAirport":false,"crsCode":"ADV","iataAirportCode":null},{"stationName":"Anerley","lat":51.41163,"long":-0.064348,"isAirport":false,"crsCode":"ANZ","iataAirportCode":null},{"stationName":"Angel Road","lat":51.612354,"long":-0.048763,"isAirport":false,"crsCode":"AGR","iataAirportCode":null},{"stationName":"Angmering","lat":50.816704,"long":-0.489559,"isAirport":false,"crsCode":"ANG","iataAirportCode":null},{"stationName":"Annan","lat":54.98386,"long":-3.262603,"isAirport":false,"crsCode":"ANN","iataAirportCode":null},{"stationName":"Anniesland","lat":55.889553,"long":-4.321684,"isAirport":false,"crsCode":"ANL","iataAirportCode":null},{"stationName":"Ansdell & Fairhaven","lat":53.741558,"long":-2.993077,"isAirport":false,"crsCode":"AFV","iataAirportCode":null},{"stationName":"Apperley Bridge","lat":53.84138,"long":-1.703065,"isAirport":false,"crsCode":"APY","iataAirportCode":null},{"stationName":"Appleby","lat":54.58032,"long":-2.486692,"isAirport":false,"crsCode":"APP","iataAirportCode":null},{"stationName":"Appledore (Kent)","lat":51.032623,"long":0.816826,"isAirport":false,"crsCode":"APD","iataAirportCode":null},{"stationName":"Appleford","lat":51.639562,"long":-1.242375,"isAirport":false,"crsCode":"APF","iataAirportCode":null},{"stationName":"Appley Bridge","lat":53.579029,"long":-2.718906,"isAirport":false,"crsCode":"APB","iataAirportCode":null},{"stationName":"Apsley","lat":51.732712,"long":-0.463568,"isAirport":false,"crsCode":"APS","iataAirportCode":null},{"stationName":"Arbroath","lat":56.559628,"long":-2.588928,"isAirport":false,"crsCode":"ARB","iataAirportCode":null},{"stationName":"Ardgay","lat":57.881119,"long":-4.362604,"isAirport":false,"crsCode":"ARD","iataAirportCode":null},{"stationName":"Ardlui","lat":56.302025,"long":-4.721712,"isAirport":false,"crsCode":"AUI","iataAirportCode":null},{"stationName":"Ardrossan Harbour","lat":55.640854,"long":-4.823461,"isAirport":false,"crsCode":"ADS","iataAirportCode":null},{"stationName":"Ardrossan South Beach","lat":55.640495,"long":-4.799593,"isAirport":false,"crsCode":"ASB","iataAirportCode":null},{"stationName":"Ardrossan Town","lat":55.639313,"long":-4.812212,"isAirport":false,"crsCode":"ADN","iataAirportCode":null},{"stationName":"Ardwick","lat":53.47134,"long":-2.213893,"isAirport":false,"crsCode":"ADK","iataAirportCode":null},{"stationName":"Argyle Street","lat":55.855938,"long":-4.244574,"isAirport":false,"crsCode":"AGS","iataAirportCode":null},{"stationName":"Arisaig","lat":56.912617,"long":-5.839141,"isAirport":false,"crsCode":"ARG","iataAirportCode":null},{"stationName":"Arlesey","lat":52.025938,"long":-0.266178,"isAirport":false,"crsCode":"ARL","iataAirportCode":null},{"stationName":"Armadale","lat":55.88639,"long":-3.68504,"isAirport":false,"crsCode":"ARM","iataAirportCode":null},{"stationName":"Armathwaite","lat":54.809611,"long":-2.77209,"isAirport":false,"crsCode":"AWT","iataAirportCode":null},{"stationName":"Arnside","lat":54.202114,"long":-2.827783,"isAirport":false,"crsCode":"ARN","iataAirportCode":null},{"stationName":"Arram","lat":53.884567,"long":-0.426833,"isAirport":false,"crsCode":"ARR","iataAirportCode":null},{"stationName":"Arrochar & Tarbet","lat":56.204021,"long":-4.722822,"isAirport":false,"crsCode":"ART","iataAirportCode":null},{"stationName":"Arundel","lat":50.848003,"long":-0.546796,"isAirport":false,"crsCode":"ARU","iataAirportCode":null},{"stationName":"Ascot","lat":51.406185,"long":-0.675827,"isAirport":false,"crsCode":"ACT","iataAirportCode":null},{"stationName":"Ascott-Under-Wychwood","lat":51.867376,"long":-1.564136,"isAirport":false,"crsCode":"AUW","iataAirportCode":null},{"stationName":"Ash","lat":51.249222,"long":-0.711856,"isAirport":false,"crsCode":"ASH","iataAirportCode":null},{"stationName":"Ash Vale","lat":51.272709,"long":-0.721247,"isAirport":false,"crsCode":"AHV","iataAirportCode":null},{"stationName":"Ashburys","lat":53.471761,"long":-2.194991,"isAirport":false,"crsCode":"ABY","iataAirportCode":null},{"stationName":"Ashchurch for Tewkesbury","lat":51.997158,"long":-2.10921,"isAirport":false,"crsCode":"ASC","iataAirportCode":null},{"stationName":"Ashfield","lat":55.889214,"long":-4.2433,"isAirport":false,"crsCode":"ASF","iataAirportCode":null},{"stationName":"Ashford International","lat":51.14335294,"long":0.875167251,"isAirport":false,"crsCode":"AFK","iataAirportCode":null},{"stationName":"Ashford Surrey","lat":51.436047,"long":-0.469229,"isAirport":false,"crsCode":"AFS","iataAirportCode":null},{"stationName":"Ashley","lat":53.355984,"long":-2.341029,"isAirport":false,"crsCode":"ASY","iataAirportCode":null},{"stationName":"Ashtead","lat":51.317822,"long":-0.308126,"isAirport":false,"crsCode":"AHD","iataAirportCode":null},{"stationName":"Ashton-Under-Lyne","lat":53.491264,"long":-2.093415,"isAirport":false,"crsCode":"AHN","iataAirportCode":null},{"stationName":"Ashurst Kent","lat":51.128601,"long":0.152298,"isAirport":false,"crsCode":"AHS","iataAirportCode":null},{"stationName":"Ashurst New Forest","lat":50.888865,"long":-1.525097,"isAirport":false,"crsCode":"ANF","iataAirportCode":null},{"stationName":"Ashwell & Morden","lat":52.030586,"long":-0.10934,"isAirport":false,"crsCode":"AWM","iataAirportCode":null},{"stationName":"Askam","lat":54.189049,"long":-3.204545,"isAirport":false,"crsCode":"ASK","iataAirportCode":null},{"stationName":"Aslockton","lat":52.951351,"long":-0.898541,"isAirport":false,"crsCode":"ALK","iataAirportCode":null},{"stationName":"Aspatria","lat":54.759338,"long":-3.331752,"isAirport":false,"crsCode":"ASP","iataAirportCode":null},{"stationName":"Aspley Guise","lat":52.020725,"long":-0.631519,"isAirport":false,"crsCode":"APG","iataAirportCode":null},{"stationName":"Aston","lat":52.505104,"long":-1.871788,"isAirport":false,"crsCode":"AST","iataAirportCode":null},{"stationName":"Atherstone","lat":52.578949,"long":-1.552808,"isAirport":false,"crsCode":"ATH","iataAirportCode":null},{"stationName":"Atherton","lat":53.528817,"long":-2.478683,"isAirport":false,"crsCode":"ATN","iataAirportCode":null},{"stationName":"Attadale","lat":57.394871,"long":-5.456549,"isAirport":false,"crsCode":"ATT","iataAirportCode":null},{"stationName":"Attenborough","lat":52.906322,"long":-1.231262,"isAirport":false,"crsCode":"ATB","iataAirportCode":null},{"stationName":"Attleborough","lat":52.514214,"long":1.022719,"isAirport":false,"crsCode":"ATL","iataAirportCode":null},{"stationName":"Auchinleck","lat":55.47031,"long":-4.295389,"isAirport":false,"crsCode":"AUK","iataAirportCode":null},{"stationName":"Audley End","lat":52.004398,"long":0.20719,"isAirport":false,"crsCode":"AUD","iataAirportCode":null},{"stationName":"Aughton Park","lat":53.55447,"long":-2.895095,"isAirport":false,"crsCode":"AUG","iataAirportCode":null},{"stationName":"Aviemore","lat":57.18914,"long":-3.828348,"isAirport":false,"crsCode":"AVM","iataAirportCode":null},{"stationName":"Avoncliff","lat":51.339596,"long":-2.281342,"isAirport":false,"crsCode":"AVF","iataAirportCode":null},{"stationName":"Avonmouth","lat":51.500194,"long":-2.699332,"isAirport":false,"crsCode":"AVN","iataAirportCode":null},{"stationName":"Axminster","lat":50.778976,"long":-3.005613,"isAirport":false,"crsCode":"AXM","iataAirportCode":null},{"stationName":"Aylesbury","lat":51.813868,"long":-0.815048,"isAirport":false,"crsCode":"AYS","iataAirportCode":null},{"stationName":"Aylesbury Vale Parkway","lat":51.8327,"long":-0.8623,"isAirport":false,"crsCode":"AVP","iataAirportCode":null},{"stationName":"Aylesford","lat":51.301384,"long":0.465964,"isAirport":false,"crsCode":"AYL","iataAirportCode":null},{"stationName":"Aylesham","lat":51.227185,"long":1.209682,"isAirport":false,"crsCode":"AYH","iataAirportCode":null},{"stationName":"Ayr Station","lat":55.458248,"long":-4.626878,"isAirport":false,"crsCode":"AYR","iataAirportCode":null},{"stationName":"Bache","lat":53.209312,"long":-2.892386,"isAirport":false,"crsCode":"BAC","iataAirportCode":null},{"stationName":"Baglan","lat":51.61549,"long":-3.811182,"isAirport":false,"crsCode":"BAJ","iataAirportCode":null},{"stationName":"Bagshot","lat":51.364964,"long":-0.688501,"isAirport":false,"crsCode":"BAG","iataAirportCode":null},{"stationName":"Baildon","lat":53.849682,"long":-1.753717,"isAirport":false,"crsCode":"BLD","iataAirportCode":null},{"stationName":"Baillieston","lat":55.844761,"long":-4.11454,"isAirport":false,"crsCode":"BIO","iataAirportCode":null},{"stationName":"Balcombe","lat":51.05624,"long":-0.137881,"isAirport":false,"crsCode":"BAB","iataAirportCode":null},{"stationName":"Baldock","lat":51.993156,"long":-0.188106,"isAirport":false,"crsCode":"BDK","iataAirportCode":null},{"stationName":"Balham","lat":51.443169,"long":-0.152403,"isAirport":false,"crsCode":"BAL","iataAirportCode":null},{"stationName":"Balloch Central","lat":56.002983,"long":-4.583539,"isAirport":false,"crsCode":"BHC","iataAirportCode":null},{"stationName":"Balmossie","lat":56.475548,"long":-2.83764,"isAirport":false,"crsCode":"BSI","iataAirportCode":null},{"stationName":"Bamber Bridge","lat":53.726772,"long":-2.660793,"isAirport":false,"crsCode":"BMB","iataAirportCode":null},{"stationName":"Bamford","lat":53.338985,"long":-1.689078,"isAirport":false,"crsCode":"BAM","iataAirportCode":null},{"stationName":"Banavie","lat":56.84338,"long":-5.095477,"isAirport":false,"crsCode":"BNV","iataAirportCode":null},{"stationName":"Banbury","lat":52.060925,"long":-1.327541,"isAirport":false,"crsCode":"BAN","iataAirportCode":null},{"stationName":"Bangor (Gwynedd)","lat":53.222902,"long":-4.135505,"isAirport":false,"crsCode":"BNG","iataAirportCode":null},{"stationName":"Bank Hall","lat":53.437357,"long":-2.987509,"isAirport":false,"crsCode":"BAH","iataAirportCode":null},{"stationName":"Banstead","lat":51.329922,"long":-0.214384,"isAirport":false,"crsCode":"BAD","iataAirportCode":null},{"stationName":"Barassie","lat":55.5611,"long":-4.651181,"isAirport":false,"crsCode":"BSS","iataAirportCode":null},{"stationName":"Bardon Mill","lat":54.974636,"long":-2.349922,"isAirport":false,"crsCode":"BLL","iataAirportCode":null},{"stationName":"Bare Lane","lat":54.074473,"long":-2.835331,"isAirport":false,"crsCode":"BAR","iataAirportCode":null},{"stationName":"Bargeddie","lat":55.851776,"long":-4.071789,"isAirport":false,"crsCode":"BGI","iataAirportCode":null},{"stationName":"Bargoed","lat":51.692268,"long":-3.229717,"isAirport":false,"crsCode":"BGD","iataAirportCode":null},{"stationName":"Barking","lat":51.539982,"long":0.080804,"isAirport":false,"crsCode":"BKG","iataAirportCode":null},{"stationName":"Barlaston","lat":52.942856,"long":-2.168118,"isAirport":false,"crsCode":"BRT","iataAirportCode":null},{"stationName":"Barming","lat":51.284904,"long":0.479428,"isAirport":false,"crsCode":"BMG","iataAirportCode":null},{"stationName":"Barmouth","lat":52.72287,"long":-4.056641,"isAirport":false,"crsCode":"BRM","iataAirportCode":null},{"stationName":"Barnehurst","lat":51.464798,"long":0.160885,"isAirport":false,"crsCode":"BNH","iataAirportCode":null},{"stationName":"Barnes Bridge","lat":51.471676,"long":-0.252051,"isAirport":false,"crsCode":"BNI","iataAirportCode":null},{"stationName":"Barnes Station","lat":51.467014,"long":-0.240711,"isAirport":false,"crsCode":"BNS","iataAirportCode":null},{"stationName":"Barnetby","lat":53.574219,"long":-0.409679,"isAirport":false,"crsCode":"BTB","iataAirportCode":null},{"stationName":"Barnham","lat":50.831135,"long":-0.639627,"isAirport":false,"crsCode":"BAA","iataAirportCode":null},{"stationName":"Barnhill","lat":55.877895,"long":-4.223463,"isAirport":false,"crsCode":"BNL","iataAirportCode":null},{"stationName":"Barnsley","lat":53.553978,"long":-1.477688,"isAirport":false,"crsCode":"BNY","iataAirportCode":null},{"stationName":"Barnstaple","lat":51.073532,"long":-4.064032,"isAirport":false,"crsCode":"BNP","iataAirportCode":null},{"stationName":"Barnt Green","lat":52.361328,"long":-1.994098,"isAirport":false,"crsCode":"BTG","iataAirportCode":null},{"stationName":"Barrhead","lat":55.804535,"long":-4.396411,"isAirport":false,"crsCode":"BRR","iataAirportCode":null},{"stationName":"Barrhill","lat":55.097031,"long":-4.781834,"isAirport":false,"crsCode":"BRL","iataAirportCode":null},{"stationName":"Barrow Haven","lat":53.697128,"long":-0.391427,"isAirport":false,"crsCode":"BAV","iataAirportCode":null},{"stationName":"Barrow Upon Soar","lat":52.750244,"long":-1.14956,"isAirport":false,"crsCode":"BWS","iataAirportCode":null},{"stationName":"Barrow-In-Furness","lat":54.118879,"long":-3.22614,"isAirport":false,"crsCode":"BIF","iataAirportCode":null},{"stationName":"Barry Docks","lat":51.402393,"long":-3.260749,"isAirport":false,"crsCode":"BYD","iataAirportCode":null},{"stationName":"Barry Island","lat":51.392361,"long":-3.273405,"isAirport":false,"crsCode":"BYI","iataAirportCode":null},{"stationName":"Barry Links","lat":56.493206,"long":-2.745444,"isAirport":false,"crsCode":"BYL","iataAirportCode":null},{"stationName":"Barry Station","lat":51.396729,"long":-3.285023,"isAirport":false,"crsCode":"BRY","iataAirportCode":null},{"stationName":"Barton-On-Humber","lat":53.688824,"long":-0.443233,"isAirport":false,"crsCode":"BAU","iataAirportCode":null},{"stationName":"Basildon","lat":51.568672,"long":0.457309,"isAirport":false,"crsCode":"BSO","iataAirportCode":null},{"stationName":"Basingstoke","lat":51.26804,"long":-1.086896,"isAirport":false,"crsCode":"BSK","iataAirportCode":null},{"stationName":"Bat & Ball","lat":51.289703,"long":0.194258,"isAirport":false,"crsCode":"BBL","iataAirportCode":null},{"stationName":"Bath Spa","lat":51.378059,"long":-2.356302,"isAirport":false,"crsCode":"BTH","iataAirportCode":null},{"stationName":"Bathgate","lat":55.898678,"long":-3.644019,"isAirport":false,"crsCode":"BHG","iataAirportCode":null},{"stationName":"Batley","lat":53.709129,"long":-1.622734,"isAirport":false,"crsCode":"BTL","iataAirportCode":null},{"stationName":"Battersby","lat":54.457687,"long":-1.092945,"isAirport":false,"crsCode":"BTT","iataAirportCode":null},{"stationName":"Battersea Park","lat":51.477272,"long":-0.148151,"isAirport":false,"crsCode":"BAK","iataAirportCode":null},{"stationName":"Battle","lat":50.91312,"long":0.495169,"isAirport":false,"crsCode":"BAT","iataAirportCode":null},{"stationName":"Battlesbridge","lat":51.624805,"long":0.565826,"isAirport":false,"crsCode":"BLB","iataAirportCode":null},{"stationName":"Bayford","lat":51.758808,"long":-0.096074,"isAirport":false,"crsCode":"BAY","iataAirportCode":null},{"stationName":"Beaconsfield","lat":51.611141,"long":-0.643644,"isAirport":false,"crsCode":"BCF","iataAirportCode":null},{"stationName":"Bearley","lat":52.244252,"long":-1.750259,"isAirport":false,"crsCode":"BER","iataAirportCode":null},{"stationName":"Bearsden","lat":55.917202,"long":-4.332945,"isAirport":false,"crsCode":"BRN","iataAirportCode":null},{"stationName":"Bearsted","lat":51.275589,"long":0.57786,"isAirport":false,"crsCode":"BSD","iataAirportCode":null},{"stationName":"Beasdale","lat":56.899624,"long":-5.763864,"isAirport":false,"crsCode":"BSL","iataAirportCode":null},{"stationName":"Beaulieu Road","lat":50.854206,"long":-1.505586,"isAirport":false,"crsCode":"BEU","iataAirportCode":null},{"stationName":"Beauly","lat":57.478,"long":-4.4698,"isAirport":false,"crsCode":"BEL","iataAirportCode":null},{"stationName":"Bebington","lat":53.357651,"long":-3.003659,"isAirport":false,"crsCode":"BEB","iataAirportCode":null},{"stationName":"Beccles","lat":52.458481,"long":1.569547,"isAirport":false,"crsCode":"BCC","iataAirportCode":null},{"stationName":"Beckenham Hill","lat":51.424767,"long":-0.016497,"isAirport":false,"crsCode":"BEC","iataAirportCode":null},{"stationName":"Beckenham Junction","lat":51.411446,"long":-0.027144,"isAirport":false,"crsCode":"BKJ","iataAirportCode":null},{"stationName":"Bedford St Johns","lat":52.129299,"long":-0.467348,"isAirport":false,"crsCode":"BSJ","iataAirportCode":null},{"stationName":"Bedford Station","lat":52.136175,"long":-0.47945,"isAirport":false,"crsCode":"BDM","iataAirportCode":null},{"stationName":"Bedhampton","lat":50.853638,"long":-0.996989,"isAirport":false,"crsCode":"BDH","iataAirportCode":null},{"stationName":"Bedminster","lat":51.440037,"long":-2.594184,"isAirport":false,"crsCode":"BMT","iataAirportCode":null},{"stationName":"Bedworth","lat":52.479133,"long":-1.46749,"isAirport":false,"crsCode":"BEH","iataAirportCode":null},{"stationName":"Bedwyn","lat":51.379715,"long":-1.599077,"isAirport":false,"crsCode":"BDW","iataAirportCode":null},{"stationName":"Beeston","lat":52.920551,"long":-1.207211,"isAirport":false,"crsCode":"BEE","iataAirportCode":null},{"stationName":"Bekesbourne","lat":51.261051,"long":1.136125,"isAirport":false,"crsCode":"BKS","iataAirportCode":null},{"stationName":"Belfast Central","lat":54.5953,"long":-5.9172,"isAirport":false,"crsCode":"BFC","iataAirportCode":null},{"stationName":"Belle Vue","lat":53.462181,"long":-2.180809,"isAirport":false,"crsCode":"BLV","iataAirportCode":null},{"stationName":"Bellgrove","lat":55.857182,"long":-4.22547,"isAirport":false,"crsCode":"BLG","iataAirportCode":null},{"stationName":"Bellingham","lat":51.433826,"long":-0.020421,"isAirport":false,"crsCode":"BGM","iataAirportCode":null},{"stationName":"Bellshill","lat":55.816605,"long":-4.025222,"isAirport":false,"crsCode":"BLH","iataAirportCode":null},{"stationName":"Belmont","lat":51.344086,"long":-0.199471,"isAirport":false,"crsCode":"BLM","iataAirportCode":null},{"stationName":"Belper","lat":53.024555,"long":-1.482622,"isAirport":false,"crsCode":"BLP","iataAirportCode":null},{"stationName":"Beltring","lat":51.204651,"long":0.403518,"isAirport":false,"crsCode":"BEG","iataAirportCode":null},{"stationName":"Belvedere","lat":51.491936,"long":0.152088,"isAirport":false,"crsCode":"BVD","iataAirportCode":null},{"stationName":"Bempton","lat":54.128296,"long":-0.180389,"isAirport":false,"crsCode":"BEM","iataAirportCode":null},{"stationName":"Ben Rhydding","lat":53.926167,"long":-1.797429,"isAirport":false,"crsCode":"BEY","iataAirportCode":null},{"stationName":"Benfleet","lat":51.543964,"long":0.561273,"isAirport":false,"crsCode":"BEF","iataAirportCode":null},{"stationName":"Bentham","lat":54.115791,"long":-2.510918,"isAirport":false,"crsCode":"BEN","iataAirportCode":null},{"stationName":"Bentley","lat":51.180695,"long":-0.868287,"isAirport":false,"crsCode":"BTY","iataAirportCode":null},{"stationName":"Bentley (South Yorkshire)","lat":53.542865,"long":-1.148788,"isAirport":false,"crsCode":"BYK","iataAirportCode":null},{"stationName":"Bere Alston","lat":50.485535,"long":-4.200418,"isAirport":false,"crsCode":"BAS","iataAirportCode":null},{"stationName":"Bere Ferrers","lat":50.450798,"long":-4.181901,"isAirport":false,"crsCode":"BFE","iataAirportCode":null},{"stationName":"Berkhamsted","lat":51.763638,"long":-0.562498,"isAirport":false,"crsCode":"BKM","iataAirportCode":null},{"stationName":"Berkswell","lat":52.395851,"long":-1.642845,"isAirport":false,"crsCode":"BKW","iataAirportCode":null},{"stationName":"Bermuda Park","lat":52.5029,"long":-1.4726,"isAirport":false,"crsCode":"BEP","iataAirportCode":null},{"stationName":"Berney Arms","lat":52.589745,"long":1.63043,"isAirport":false,"crsCode":"BYA","iataAirportCode":null},{"stationName":"Berry Brow","lat":53.622368,"long":-1.797371,"isAirport":false,"crsCode":"BBW","iataAirportCode":null},{"stationName":"Berrylands","lat":51.39838,"long":-0.282157,"isAirport":false,"crsCode":"BRS","iataAirportCode":null},{"stationName":"Berwick (Sussex)","lat":50.840569,"long":0.164587,"isAirport":false,"crsCode":"BRK","iataAirportCode":null},{"stationName":"Berwick-Upon-Tweed","lat":55.774872,"long":-2.01112,"isAirport":false,"crsCode":"BWK","iataAirportCode":null},{"stationName":"Bescar Lane","lat":53.623531,"long":-2.914703,"isAirport":false,"crsCode":"BES","iataAirportCode":null},{"stationName":"Bescot Stadium","lat":52.562702,"long":-1.991116,"isAirport":false,"crsCode":"BSC","iataAirportCode":null},{"stationName":"Betchworth","lat":51.247993,"long":-0.26771,"isAirport":false,"crsCode":"BTO","iataAirportCode":null},{"stationName":"Bethnal Green","lat":51.524406,"long":-0.059747,"isAirport":false,"crsCode":"BET","iataAirportCode":null},{"stationName":"Betws-Y-Coed","lat":53.092056,"long":-3.80091,"isAirport":false,"crsCode":"BYC","iataAirportCode":null},{"stationName":"Beverley","lat":53.842281,"long":-0.423855,"isAirport":false,"crsCode":"BEV","iataAirportCode":null},{"stationName":"Bexhill","lat":50.840679,"long":0.475678,"isAirport":false,"crsCode":"BEX","iataAirportCode":null},{"stationName":"Bexley","lat":51.440742,"long":0.148248,"isAirport":false,"crsCode":"BXY","iataAirportCode":null},{"stationName":"Bexleyheath","lat":51.463493,"long":0.133471,"isAirport":false,"crsCode":"BXH","iataAirportCode":null},{"stationName":"Bicester North","lat":51.903401,"long":-1.150517,"isAirport":false,"crsCode":"BCS","iataAirportCode":null},{"stationName":"Bicester Village","lat":51.893429,"long":-1.148393,"isAirport":false,"crsCode":"BIT","iataAirportCode":null},{"stationName":"Bickley","lat":51.40033,"long":0.044272,"isAirport":false,"crsCode":"BKL","iataAirportCode":null},{"stationName":"Bidston","lat":53.40913,"long":-3.078589,"isAirport":false,"crsCode":"BID","iataAirportCode":null},{"stationName":"Biggleswade","lat":52.085068,"long":-0.260294,"isAirport":false,"crsCode":"BIW","iataAirportCode":null},{"stationName":"Bilbrook","lat":52.623695,"long":-2.186101,"isAirport":false,"crsCode":"BBK","iataAirportCode":null},{"stationName":"Billericay","lat":51.628834,"long":0.418656,"isAirport":false,"crsCode":"BIC","iataAirportCode":null},{"stationName":"Billingham","lat":54.606327,"long":-1.278525,"isAirport":false,"crsCode":"BIL","iataAirportCode":null},{"stationName":"Billingshurst","lat":51.014938,"long":-0.450348,"isAirport":false,"crsCode":"BIG","iataAirportCode":null},{"stationName":"Bingham","lat":52.954536,"long":-0.952044,"isAirport":false,"crsCode":"BIN","iataAirportCode":null},{"stationName":"Bingley","lat":53.84803,"long":-1.837327,"isAirport":false,"crsCode":"BIY","iataAirportCode":null},{"stationName":"Birchgrove","lat":51.521687,"long":-3.203502,"isAirport":false,"crsCode":"BCG","iataAirportCode":null},{"stationName":"Birchington-On-Sea","lat":51.377956,"long":1.300781,"isAirport":false,"crsCode":"BCH","iataAirportCode":null},{"stationName":"Birchwood","lat":53.41193,"long":-2.52802,"isAirport":false,"crsCode":"BWD","iataAirportCode":null},{"stationName":"Birkbeck","lat":51.403847,"long":-0.056218,"isAirport":false,"crsCode":"BIK","iataAirportCode":null},{"stationName":"Birkdale","lat":53.633514,"long":-3.014742,"isAirport":false,"crsCode":"BDL","iataAirportCode":null},{"stationName":"Birkenhead Central","lat":53.388244,"long":-3.020897,"isAirport":false,"crsCode":"BKC","iataAirportCode":null},{"stationName":"Birkenhead Hamilton Square","lat":53.39469,"long":-3.01365,"isAirport":false,"crsCode":"BKQ","iataAirportCode":null},{"stationName":"Birkenhead North","lat":53.404819,"long":-3.057425,"isAirport":false,"crsCode":"BKN","iataAirportCode":null},{"stationName":"Birkenhead Park","lat":53.397417,"long":-3.03927,"isAirport":false,"crsCode":"BKP","iataAirportCode":null},{"stationName":"Birmingham","lat":52.483056,"long":-1.893611,"isAirport":false,"crsCode":"13","iataAirportCode":null},{"stationName":"Birmingham International","lat":52.450673,"long":-1.725149,"isAirport":false,"crsCode":"BHI","iataAirportCode":null},{"stationName":"Birmingham Moor Street","lat":52.479053,"long":-1.892483,"isAirport":false,"crsCode":"BMO","iataAirportCode":null},{"stationName":"Birmingham New Street","lat":52.478153,"long":-1.898375,"isAirport":false,"crsCode":"BHM","iataAirportCode":null},{"stationName":"Birmingham Snow Hill","lat":52.483555,"long":-1.899833,"isAirport":false,"crsCode":"BSW","iataAirportCode":null},{"stationName":"Bishop Auckland","lat":54.657482,"long":-1.677545,"isAirport":false,"crsCode":"BIA","iataAirportCode":null},{"stationName":"Bishopbriggs","lat":55.903927,"long":-4.224958,"isAirport":false,"crsCode":"BBG","iataAirportCode":null},{"stationName":"Bishops Stortford","lat":51.866692,"long":0.16557,"isAirport":false,"crsCode":"BIS","iataAirportCode":null},{"stationName":"Bishopstone (Hill Rise)","lat":50.780014,"long":0.082352,"isAirport":false,"crsCode":"BIP","iataAirportCode":null},{"stationName":"Bishopton","lat":55.902206,"long":-4.501637,"isAirport":false,"crsCode":"BPT","iataAirportCode":null},{"stationName":"Bitterne","lat":50.918343,"long":-1.378279,"isAirport":false,"crsCode":"BTE","iataAirportCode":null},{"stationName":"Blackburn","lat":53.746513,"long":-2.479135,"isAirport":false,"crsCode":"BBN","iataAirportCode":null},{"stationName":"Blackheath","lat":51.465706,"long":0.008317,"isAirport":false,"crsCode":"BKH","iataAirportCode":null},{"stationName":"Blackhorse Road","lat":51.586143,"long":-0.04123,"isAirport":false,"crsCode":"BHO","iataAirportCode":null},{"stationName":"Blackpool North","lat":53.822772,"long":-3.049908,"isAirport":false,"crsCode":"BPN","iataAirportCode":null},{"stationName":"Blackpool Pleasure Beach","lat":53.788154,"long":-3.053856,"isAirport":false,"crsCode":"BPB","iataAirportCode":null},{"stationName":"Blackpool South","lat":53.798611,"long":-3.049081,"isAirport":false,"crsCode":"BPS","iataAirportCode":null},{"stationName":"Blackridge","lat":55.88368,"long":-3.75047,"isAirport":false,"crsCode":"BKR","iataAirportCode":null},{"stationName":"Blackrod","lat":53.591522,"long":-2.56954,"isAirport":false,"crsCode":"BLK","iataAirportCode":null},{"stationName":"Blackwater","lat":51.33176,"long":-0.777023,"isAirport":false,"crsCode":"BAW","iataAirportCode":null},{"stationName":"Blaenau Ffestiniog","lat":52.996284,"long":-3.944449,"isAirport":false,"crsCode":"BFF","iataAirportCode":null},{"stationName":"Blair Atholl","lat":56.765614,"long":-3.85025,"isAirport":false,"crsCode":"BLA","iataAirportCode":null},{"stationName":"Blairhill","lat":55.866653,"long":-4.04221,"isAirport":false,"crsCode":"BAI","iataAirportCode":null},{"stationName":"Blake Street","lat":52.605054,"long":-1.844888,"isAirport":false,"crsCode":"BKT","iataAirportCode":null},{"stationName":"Blakedown","lat":52.406147,"long":-2.176365,"isAirport":false,"crsCode":"BKD","iataAirportCode":null},{"stationName":"Blantyre","lat":55.7976,"long":-4.086466,"isAirport":false,"crsCode":"BLT","iataAirportCode":null},{"stationName":"Blaydon","lat":54.965813,"long":-1.712578,"isAirport":false,"crsCode":"BLO","iataAirportCode":null},{"stationName":"Bleasby","lat":53.041649,"long":-0.942469,"isAirport":false,"crsCode":"BSB","iataAirportCode":null},{"stationName":"Bletchley","lat":51.995339,"long":-0.736368,"isAirport":false,"crsCode":"BLY","iataAirportCode":null},{"stationName":"Bloxwich North","lat":52.625637,"long":-2.019173,"isAirport":false,"crsCode":"BWN","iataAirportCode":null},{"stationName":"Bloxwich Station","lat":52.61853,"long":-2.011783,"isAirport":false,"crsCode":"BLX","iataAirportCode":null},{"stationName":"Blundellsands & Crosby","lat":53.487675,"long":-3.039889,"isAirport":false,"crsCode":"BLN","iataAirportCode":null},{"stationName":"Blythe Bridge","lat":52.968124,"long":-2.066966,"isAirport":false,"crsCode":"BYB","iataAirportCode":null},{"stationName":"Bodmin Parkway","lat":50.445822,"long":-4.663026,"isAirport":false,"crsCode":"BOD","iataAirportCode":null},{"stationName":"Bodorgan","lat":53.204292,"long":-4.418067,"isAirport":false,"crsCode":"BOR","iataAirportCode":null},{"stationName":"Bognor Regis","lat":50.786594,"long":-0.676384,"isAirport":false,"crsCode":"BOG","iataAirportCode":null},{"stationName":"Bogston","lat":55.937267,"long":-4.713676,"isAirport":false,"crsCode":"BGS","iataAirportCode":null},{"stationName":"Bolton","lat":53.573983,"long":-2.425661,"isAirport":false,"crsCode":"BON","iataAirportCode":null},{"stationName":"Bolton-On-Dearne","lat":53.518986,"long":-1.312217,"isAirport":false,"crsCode":"BTD","iataAirportCode":null},{"stationName":"Bookham","lat":51.288334,"long":-0.385224,"isAirport":false,"crsCode":"BKA","iataAirportCode":null},{"stationName":"Bootle (Cumbria)","lat":54.290249,"long":-3.394818,"isAirport":false,"crsCode":"BOC","iataAirportCode":null},{"stationName":"Bootle New Strand","lat":53.453357,"long":-2.994676,"isAirport":false,"crsCode":"BNW","iataAirportCode":null},{"stationName":"Bootle Oriel Road","lat":53.446559,"long":-2.995791,"isAirport":false,"crsCode":"BOT","iataAirportCode":null},{"stationName":"Bordesley","lat":52.471844,"long":-1.877771,"isAirport":false,"crsCode":"BBS","iataAirportCode":null},{"stationName":"Borough Green & Wrotham","lat":51.29295,"long":0.306296,"isAirport":false,"crsCode":"BRG","iataAirportCode":null},{"stationName":"Borth","lat":52.491001,"long":-4.050236,"isAirport":false,"crsCode":"BRH","iataAirportCode":null},{"stationName":"Bosham","lat":50.843262,"long":-0.846655,"isAirport":false,"crsCode":"BOH","iataAirportCode":null},{"stationName":"Boston","lat":52.978802,"long":-0.030949,"isAirport":false,"crsCode":"BSN","iataAirportCode":null},{"stationName":"Botley","lat":50.916748,"long":-1.258809,"isAirport":false,"crsCode":"BOE","iataAirportCode":null},{"stationName":"Bottesford","lat":52.944962,"long":-0.796012,"isAirport":false,"crsCode":"BTF","iataAirportCode":null},{"stationName":"Bourne End","lat":51.576538,"long":-0.711287,"isAirport":false,"crsCode":"BNE","iataAirportCode":null},{"stationName":"Bournemouth","lat":50.727478,"long":-1.863955,"isAirport":false,"crsCode":"BMH","iataAirportCode":null},{"stationName":"Bournville","lat":52.426937,"long":-1.926434,"isAirport":false,"crsCode":"BRV","iataAirportCode":null},{"stationName":"Bow Brickhill","lat":52.003475,"long":-0.696154,"isAirport":false,"crsCode":"BWB","iataAirportCode":null},{"stationName":"Bowes Park","lat":51.607216,"long":-0.119761,"isAirport":false,"crsCode":"BOP","iataAirportCode":null},{"stationName":"Bowling","lat":55.931129,"long":-4.493879,"isAirport":false,"crsCode":"BWG","iataAirportCode":null},{"stationName":"Box Hill & Westhumble","lat":51.253376,"long":-0.329128,"isAirport":false,"crsCode":"BXW","iataAirportCode":null},{"stationName":"Bracknell","lat":51.413319,"long":-0.751833,"isAirport":false,"crsCode":"BCE","iataAirportCode":null},{"stationName":"Bradford Forster Square","lat":53.79575,"long":-1.752505,"isAirport":false,"crsCode":"BDQ","iataAirportCode":null},{"stationName":"Bradford Interchange","lat":53.791196,"long":-1.749701,"isAirport":false,"crsCode":"BDI","iataAirportCode":null},{"stationName":"Bradford-On-Avon","lat":51.345058,"long":-2.252669,"isAirport":false,"crsCode":"BOA","iataAirportCode":null},{"stationName":"Brading","lat":50.678509,"long":-1.13801,"isAirport":false,"crsCode":"BDN","iataAirportCode":null},{"stationName":"Braintree","lat":51.874989,"long":0.558261,"isAirport":false,"crsCode":"BTR","iataAirportCode":null},{"stationName":"Braintree Freeport","lat":51.869316,"long":0.568258,"isAirport":false,"crsCode":"BTP","iataAirportCode":null},{"stationName":"Bramhall","lat":53.359959,"long":-2.162249,"isAirport":false,"crsCode":"BML","iataAirportCode":null},{"stationName":"Bramley (Hants)","lat":51.32988,"long":-1.061265,"isAirport":false,"crsCode":"BMY","iataAirportCode":null},{"stationName":"Bramley (W Yorks)","lat":53.803532,"long":-1.630985,"isAirport":false,"crsCode":"BLE","iataAirportCode":null},{"stationName":"Brampton (Cumbria)","lat":54.932655,"long":-2.703814,"isAirport":false,"crsCode":"BMP","iataAirportCode":null},{"stationName":"Brampton (Suffolk)","lat":52.395397,"long":1.543871,"isAirport":false,"crsCode":"BRP","iataAirportCode":null},{"stationName":"Branchton","lat":55.940647,"long":-4.803598,"isAirport":false,"crsCode":"BCN","iataAirportCode":null},{"stationName":"Brandon","lat":52.454479,"long":0.624116,"isAirport":false,"crsCode":"BND","iataAirportCode":null},{"stationName":"Branksome","lat":50.727528,"long":-1.919211,"isAirport":false,"crsCode":"BSM","iataAirportCode":null},{"stationName":"Braystones","lat":54.43956,"long":-3.543406,"isAirport":false,"crsCode":"BYS","iataAirportCode":null},{"stationName":"Bredbury","lat":53.422939,"long":-2.109823,"isAirport":false,"crsCode":"BDY","iataAirportCode":null},{"stationName":"Breich","lat":55.827351,"long":-3.668147,"isAirport":false,"crsCode":"BRC","iataAirportCode":null},{"stationName":"Brentford","lat":51.487804,"long":-0.309048,"isAirport":false,"crsCode":"BFD","iataAirportCode":null},{"stationName":"Brentwood","lat":51.61322,"long":0.30083,"isAirport":false,"crsCode":"BRE","iataAirportCode":null},{"stationName":"Bricket Wood","lat":51.705223,"long":-0.358846,"isAirport":false,"crsCode":"BWO","iataAirportCode":null},{"stationName":"Bridge of Allan","lat":56.157429,"long":-3.956166,"isAirport":false,"crsCode":"BEA","iataAirportCode":null},{"stationName":"Bridge of Orchy","lat":56.515926,"long":-4.763048,"isAirport":false,"crsCode":"BRO","iataAirportCode":null},{"stationName":"Bridgend","lat":51.506481,"long":-3.576296,"isAirport":false,"crsCode":"BGN","iataAirportCode":null},{"stationName":"Bridgeton","lat":55.849968,"long":-4.226668,"isAirport":false,"crsCode":"BDG","iataAirportCode":null},{"stationName":"Bridgwater","lat":51.128025,"long":-2.99031,"isAirport":false,"crsCode":"BWT","iataAirportCode":null},{"stationName":"Bridlington","lat":54.084545,"long":-0.200659,"isAirport":false,"crsCode":"BDT","iataAirportCode":null},{"stationName":"Brierfield","lat":53.824535,"long":-2.236959,"isAirport":false,"crsCode":"BRF","iataAirportCode":null},{"stationName":"Brigg","lat":53.549137,"long":-0.486094,"isAirport":false,"crsCode":"BGG","iataAirportCode":null},{"stationName":"Brighouse","lat":53.698734,"long":-1.781855,"isAirport":false,"crsCode":"BGH","iataAirportCode":null},{"stationName":"Brighton","lat":50.829659,"long":-0.141234,"isAirport":false,"crsCode":"BTN","iataAirportCode":null},{"stationName":"Brimsdown","lat":51.655224,"long":-0.031022,"isAirport":false,"crsCode":"BMD","iataAirportCode":null},{"stationName":"Brinnington","lat":53.431881,"long":-2.134097,"isAirport":false,"crsCode":"BNT","iataAirportCode":null},{"stationName":"Bristol Parkway","lat":51.514061,"long":-2.53461,"isAirport":false,"crsCode":"BPW","iataAirportCode":null},{"stationName":"Bristol Temple Meads","lat":51.449093,"long":-2.581349,"isAirport":false,"crsCode":"BRI","iataAirportCode":null},{"stationName":"Brithdir","lat":51.710266,"long":-3.228765,"isAirport":false,"crsCode":"BHD","iataAirportCode":null},{"stationName":"British Steel Redcar","lat":54.609263,"long":-1.108324,"isAirport":false,"crsCode":"RBS","iataAirportCode":null},{"stationName":"Briton Ferry","lat":51.637852,"long":-3.8193,"isAirport":false,"crsCode":"BNF","iataAirportCode":null},{"stationName":"Brixton","lat":51.463245,"long":-0.114164,"isAirport":false,"crsCode":"BRX","iataAirportCode":null},{"stationName":"Broad Green","lat":53.40654,"long":-2.893267,"isAirport":false,"crsCode":"BGE","iataAirportCode":null},{"stationName":"Broadbottom","lat":53.440968,"long":-2.01653,"isAirport":false,"crsCode":"BDB","iataAirportCode":null},{"stationName":"Broadstairs","lat":51.360653,"long":1.43317,"isAirport":false,"crsCode":"BSR","iataAirportCode":null},{"stationName":"Brockenhurst","lat":50.816708,"long":-1.574112,"isAirport":false,"crsCode":"BCU","iataAirportCode":null},{"stationName":"Brockholes","lat":53.597149,"long":-1.770299,"isAirport":false,"crsCode":"BHS","iataAirportCode":null},{"stationName":"Brockley","lat":51.464684,"long":-0.037797,"isAirport":false,"crsCode":"BCY","iataAirportCode":null},{"stationName":"Brockley Whins","lat":54.958672,"long":-1.462749,"isAirport":false,"crsCode":"BNR","iataAirportCode":null},{"stationName":"Bromborough Rake","lat":53.329899,"long":-2.989644,"isAirport":false,"crsCode":"BMR","iataAirportCode":null},{"stationName":"Bromborough Station","lat":53.322146,"long":-2.987058,"isAirport":false,"crsCode":"BOM","iataAirportCode":null},{"stationName":"Bromley Cross","lat":53.613743,"long":-2.409614,"isAirport":false,"crsCode":"BMC","iataAirportCode":null},{"stationName":"Bromley North","lat":51.408894,"long":0.017325,"isAirport":false,"crsCode":"BMN","iataAirportCode":null},{"stationName":"Bromley South","lat":51.399887,"long":0.018374,"isAirport":false,"crsCode":"BMS","iataAirportCode":null},{"stationName":"Bromsgrove","lat":52.322662,"long":-2.048379,"isAirport":false,"crsCode":"BMV","iataAirportCode":null},{"stationName":"Brondesbury Park","lat":51.540896,"long":-0.209955,"isAirport":false,"crsCode":"BSP","iataAirportCode":null},{"stationName":"Brondesbury Station","lat":51.545574,"long":-0.203063,"isAirport":false,"crsCode":"BSY","iataAirportCode":null},{"stationName":"Brookmans Park","lat":51.720955,"long":-0.204811,"isAirport":false,"crsCode":"BPK","iataAirportCode":null},{"stationName":"Brookwood","lat":51.303215,"long":-0.635753,"isAirport":false,"crsCode":"BKO","iataAirportCode":null},{"stationName":"Broome","lat":52.422745,"long":-2.88524,"isAirport":false,"crsCode":"BME","iataAirportCode":null},{"stationName":"Broomfleet","lat":53.740131,"long":-0.673328,"isAirport":false,"crsCode":"BMF","iataAirportCode":null},{"stationName":"Brora","lat":58.012657,"long":-3.853251,"isAirport":false,"crsCode":"BRA","iataAirportCode":null},{"stationName":"Brough","lat":53.726452,"long":-0.578255,"isAirport":false,"crsCode":"BUH","iataAirportCode":null},{"stationName":"Broughty Ferry","lat":56.467213,"long":-2.873153,"isAirport":false,"crsCode":"BYF","iataAirportCode":null},{"stationName":"Broxbourne","lat":51.745712,"long":-0.011157,"isAirport":false,"crsCode":"BXB","iataAirportCode":null},{"stationName":"Bruce Grove","lat":51.592918,"long":-0.06982,"isAirport":false,"crsCode":"BCV","iataAirportCode":null},{"stationName":"Brundall Gardens","lat":52.623035,"long":1.418896,"isAirport":false,"crsCode":"BGA","iataAirportCode":null},{"stationName":"Brundall Station","lat":52.619747,"long":1.439316,"isAirport":false,"crsCode":"BDA","iataAirportCode":null},{"stationName":"Brunstane","lat":55.94143,"long":-3.10064,"isAirport":false,"crsCode":"BSU","iataAirportCode":null},{"stationName":"Brunswick","lat":53.382153,"long":-2.975665,"isAirport":false,"crsCode":"BRW","iataAirportCode":null},{"stationName":"Bruton","lat":51.111584,"long":-2.447103,"isAirport":false,"crsCode":"BRU","iataAirportCode":null},{"stationName":"Bryn","lat":53.499893,"long":-2.647233,"isAirport":false,"crsCode":"BYN","iataAirportCode":null},{"stationName":"Buckenham","lat":52.59816,"long":1.47013,"isAirport":false,"crsCode":"BUC","iataAirportCode":null},{"stationName":"Buckley","lat":53.163021,"long":-3.055948,"isAirport":false,"crsCode":"BCK","iataAirportCode":null},{"stationName":"Bucknell","lat":52.357525,"long":-2.948551,"isAirport":false,"crsCode":"BUK","iataAirportCode":null},{"stationName":"Buckshaw Parkway","lat":53.67283,"long":-2.66447,"isAirport":false,"crsCode":"BSV","iataAirportCode":null},{"stationName":"Bugle","lat":50.399979,"long":-4.791736,"isAirport":false,"crsCode":"BGL","iataAirportCode":null},{"stationName":"Builth Road","lat":52.169289,"long":-3.427068,"isAirport":false,"crsCode":"BHR","iataAirportCode":null},{"stationName":"Bulwell","lat":52.999625,"long":-1.196115,"isAirport":false,"crsCode":"BLW","iataAirportCode":null},{"stationName":"Bures","lat":51.97094,"long":0.769021,"isAirport":false,"crsCode":"BUE","iataAirportCode":null},{"stationName":"Burgess Hill","lat":50.953552,"long":-0.127749,"isAirport":false,"crsCode":"BUG","iataAirportCode":null},{"stationName":"Burley Park","lat":53.808743,"long":-1.576277,"isAirport":false,"crsCode":"BUY","iataAirportCode":null},{"stationName":"Burley-In-Wharfedale","lat":53.908112,"long":-1.753363,"isAirport":false,"crsCode":"BUW","iataAirportCode":null},{"stationName":"Burnage","lat":53.421205,"long":-2.215896,"isAirport":false,"crsCode":"BNA","iataAirportCode":null},{"stationName":"Burneside","lat":54.355305,"long":-2.766231,"isAirport":false,"crsCode":"BUD","iataAirportCode":null},{"stationName":"Burnham","lat":51.523538,"long":-0.647335,"isAirport":false,"crsCode":"BNM","iataAirportCode":null},{"stationName":"Burnham-On-Crouch","lat":51.633526,"long":0.813459,"isAirport":false,"crsCode":"BUU","iataAirportCode":null},{"stationName":"Burnley Barracks","lat":53.791237,"long":-2.258014,"isAirport":false,"crsCode":"BUB","iataAirportCode":null},{"stationName":"Burnley Central","lat":53.793776,"long":-2.244644,"isAirport":false,"crsCode":"BNC","iataAirportCode":null},{"stationName":"Burnley Manchester Road","lat":53.784962,"long":-2.248883,"isAirport":false,"crsCode":"BYM","iataAirportCode":null},{"stationName":"Burnside","lat":55.817123,"long":-4.204029,"isAirport":false,"crsCode":"BUI","iataAirportCode":null},{"stationName":"Burntisland","lat":56.057133,"long":-3.233214,"isAirport":false,"crsCode":"BTS","iataAirportCode":null},{"stationName":"Burscough Bridge","lat":53.60519,"long":-2.841758,"isAirport":false,"crsCode":"BCB","iataAirportCode":null},{"stationName":"Burscough Junction","lat":53.598011,"long":-2.840105,"isAirport":false,"crsCode":"BCJ","iataAirportCode":null},{"stationName":"Bursledon","lat":50.882858,"long":-1.304835,"isAirport":false,"crsCode":"BUO","iataAirportCode":null},{"stationName":"Burton Joyce","lat":52.984047,"long":-1.040698,"isAirport":false,"crsCode":"BUJ","iataAirportCode":null},{"stationName":"Burton-On-Trent","lat":52.805798,"long":-1.64246,"isAirport":false,"crsCode":"BUT","iataAirportCode":null},{"stationName":"Bury St Edmunds","lat":52.253727,"long":0.713355,"isAirport":false,"crsCode":"BSE","iataAirportCode":null},{"stationName":"Busby","lat":55.780109,"long":-4.262551,"isAirport":false,"crsCode":"BUS","iataAirportCode":null},{"stationName":"Bush Hill Park","lat":51.642365,"long":-0.06916,"isAirport":false,"crsCode":"BHK","iataAirportCode":null},{"stationName":"Bushey","lat":51.644669,"long":-0.384806,"isAirport":false,"crsCode":"BSH","iataAirportCode":null},{"stationName":"Butlers Lane","lat":52.592376,"long":-1.838163,"isAirport":false,"crsCode":"BUL","iataAirportCode":null},{"stationName":"Buxted","lat":50.990475,"long":0.131651,"isAirport":false,"crsCode":"BXD","iataAirportCode":null},{"stationName":"Buxton Station","lat":53.26058,"long":-1.913086,"isAirport":false,"crsCode":"BUX","iataAirportCode":null},{"stationName":"Byfleet & New Haw","lat":51.349869,"long":-0.480714,"isAirport":false,"crsCode":"BFN","iataAirportCode":null},{"stationName":"Bynea","lat":51.67276,"long":-4.098396,"isAirport":false,"crsCode":"BYE","iataAirportCode":null},{"stationName":"Cadoxton","lat":51.412422,"long":-3.248087,"isAirport":false,"crsCode":"CAD","iataAirportCode":null},{"stationName":"Caergwrle","lat":53.107922,"long":-3.033069,"isAirport":false,"crsCode":"CGW","iataAirportCode":null},{"stationName":"Caerphilly","lat":51.571903,"long":-3.217805,"isAirport":false,"crsCode":"CPH","iataAirportCode":null},{"stationName":"Caersws","lat":52.516262,"long":-3.43387,"isAirport":false,"crsCode":"CWS","iataAirportCode":null},{"stationName":"Caldercruix","lat":55.88791,"long":-3.88978,"isAirport":false,"crsCode":"CAC","iataAirportCode":null},{"stationName":"Caldicot","lat":51.58474,"long":-2.760598,"isAirport":false,"crsCode":"CDT","iataAirportCode":null},{"stationName":"Caledonian Road & Barnsbury","lat":51.543301,"long":-0.115177,"isAirport":false,"crsCode":"CIR","iataAirportCode":null},{"stationName":"Calstock","lat":50.497487,"long":-4.208665,"isAirport":false,"crsCode":"CSK","iataAirportCode":null},{"stationName":"Cam & Dursley","lat":51.71701,"long":-2.366194,"isAirport":false,"crsCode":"CDU","iataAirportCode":null},{"stationName":"Camberley","lat":51.335911,"long":-0.745328,"isAirport":false,"crsCode":"CAM","iataAirportCode":null},{"stationName":"Camborne","lat":50.210392,"long":-5.297921,"isAirport":false,"crsCode":"CBN","iataAirportCode":null},{"stationName":"Cambridge Heath","lat":51.53157,"long":-0.057997,"isAirport":false,"crsCode":"CBH","iataAirportCode":null},{"stationName":"Cambridge Station","lat":52.194519,"long":0.137584,"isAirport":false,"crsCode":"CBG","iataAirportCode":null},{"stationName":"Cambuslang","lat":55.819458,"long":-4.173839,"isAirport":false,"crsCode":"CBL","iataAirportCode":null},{"stationName":"Camden Road","lat":51.541889,"long":-0.139764,"isAirport":false,"crsCode":"CMD","iataAirportCode":null},{"stationName":"Camelon","lat":56.006775,"long":-3.817015,"isAirport":false,"crsCode":"CMO","iataAirportCode":null},{"stationName":"Canada Water","lat":51.49823,"long":-0.05076,"isAirport":false,"crsCode":"ZCW","iataAirportCode":null},{"stationName":"Canley","lat":52.399418,"long":-1.547232,"isAirport":false,"crsCode":"CNL","iataAirportCode":null},{"stationName":"Cannock","lat":52.686768,"long":-2.022158,"isAirport":false,"crsCode":"CAO","iataAirportCode":null},{"stationName":"Canonbury","lat":51.548747,"long":-0.091614,"isAirport":false,"crsCode":"CNN","iataAirportCode":null},{"stationName":"Canterbury East","lat":51.275261,"long":1.075434,"isAirport":false,"crsCode":"CBE","iataAirportCode":null},{"stationName":"Canterbury West","lat":51.284279,"long":1.074608,"isAirport":false,"crsCode":"CBW","iataAirportCode":null},{"stationName":"Cantley","lat":52.578907,"long":1.512899,"isAirport":false,"crsCode":"CNY","iataAirportCode":null},{"stationName":"Capenhurst","lat":53.260155,"long":-2.942908,"isAirport":false,"crsCode":"CPU","iataAirportCode":null},{"stationName":"Carbis Bay","lat":50.19746,"long":-5.463815,"isAirport":false,"crsCode":"CBB","iataAirportCode":null},{"stationName":"Cardenden","lat":56.141308,"long":-3.261651,"isAirport":false,"crsCode":"CDD","iataAirportCode":null},{"stationName":"Cardiff Bay","lat":51.466324,"long":-3.166049,"isAirport":false,"crsCode":"CDB","iataAirportCode":null},{"stationName":"Cardiff Central","lat":51.475193,"long":-3.177794,"isAirport":false,"crsCode":"CDF","iataAirportCode":null},{"stationName":"Cardiff International Airport","lat":51.396667,"long":-3.343333,"isAirport":true,"crsCode":"XCF","iataAirportCode":"CWL"},{"stationName":"Cardiff Queen Street","lat":51.482464,"long":-3.170782,"isAirport":false,"crsCode":"CDQ","iataAirportCode":null},{"stationName":"Cardonald","lat":55.853252,"long":-4.340297,"isAirport":false,"crsCode":"CDO","iataAirportCode":null},{"stationName":"Cardross","lat":55.960163,"long":-4.652782,"isAirport":false,"crsCode":"CDR","iataAirportCode":null},{"stationName":"Carfin","lat":55.806938,"long":-3.956112,"isAirport":false,"crsCode":"CRF","iataAirportCode":null},{"stationName":"Cark","lat":54.177513,"long":-2.972746,"isAirport":false,"crsCode":"CAK","iataAirportCode":null},{"stationName":"Carlisle","lat":54.890675,"long":-2.933833,"isAirport":false,"crsCode":"CAR","iataAirportCode":null},{"stationName":"Carlton Station","lat":52.964573,"long":-1.078357,"isAirport":false,"crsCode":"CTO","iataAirportCode":null},{"stationName":"Carluke","lat":55.730408,"long":-3.848761,"isAirport":false,"crsCode":"CLU","iataAirportCode":null},{"stationName":"Carmarthen","lat":51.853233,"long":-4.305732,"isAirport":false,"crsCode":"CMN","iataAirportCode":null},{"stationName":"Carmyle","lat":55.834053,"long":-4.161873,"isAirport":false,"crsCode":"CML","iataAirportCode":null},{"stationName":"Carnforth","lat":54.129688,"long":-2.771244,"isAirport":false,"crsCode":"CNF","iataAirportCode":null},{"stationName":"Carnoustie","lat":56.500618,"long":-2.7066,"isAirport":false,"crsCode":"CAN","iataAirportCode":null},{"stationName":"Carntyne","lat":55.854412,"long":-4.17898,"isAirport":false,"crsCode":"CAY","iataAirportCode":null},{"stationName":"Carpenders Park","lat":51.627885,"long":-0.385578,"isAirport":false,"crsCode":"CPK","iataAirportCode":null},{"stationName":"Carrbridge","lat":57.279873,"long":-3.829541,"isAirport":false,"crsCode":"CAG","iataAirportCode":null},{"stationName":"Carshalton","lat":51.367859,"long":-0.16693,"isAirport":false,"crsCode":"CSH","iataAirportCode":null},{"stationName":"Carshalton Beeches","lat":51.357117,"long":-0.17023,"isAirport":false,"crsCode":"CSB","iataAirportCode":null},{"stationName":"Carstairs","lat":55.69075,"long":-3.668696,"isAirport":false,"crsCode":"CRS","iataAirportCode":null},{"stationName":"Cartsdyke","lat":55.942261,"long":-4.731633,"isAirport":false,"crsCode":"CDY","iataAirportCode":null},{"stationName":"Castle Bar Park","lat":51.522865,"long":-0.331575,"isAirport":false,"crsCode":"CBP","iataAirportCode":null},{"stationName":"Castle Cary","lat":51.099583,"long":-2.522683,"isAirport":false,"crsCode":"CLC","iataAirportCode":null},{"stationName":"Castleford","lat":53.724171,"long":-1.355852,"isAirport":false,"crsCode":"CFD","iataAirportCode":null},{"stationName":"Castleton","lat":53.591804,"long":-2.178125,"isAirport":false,"crsCode":"CAS","iataAirportCode":null},{"stationName":"Castleton Moor","lat":54.467297,"long":-0.947707,"isAirport":false,"crsCode":"CSM","iataAirportCode":null},{"stationName":"Caterham","lat":51.282803,"long":-0.078539,"isAirport":false,"crsCode":"CAT","iataAirportCode":null},{"stationName":"Catford Bridge","lat":51.444725,"long":-0.027142,"isAirport":false,"crsCode":"CFB","iataAirportCode":null},{"stationName":"Catford Station","lat":51.444706,"long":-0.025701,"isAirport":false,"crsCode":"CTF","iataAirportCode":null},{"stationName":"Cathays","lat":51.488678,"long":-3.178149,"isAirport":false,"crsCode":"CYS","iataAirportCode":null},{"stationName":"Cathcart","lat":55.817879,"long":-4.261552,"isAirport":false,"crsCode":"CCT","iataAirportCode":null},{"stationName":"Cattal","lat":53.997515,"long":-1.319808,"isAirport":false,"crsCode":"CTL","iataAirportCode":null},{"stationName":"Causeland","lat":50.405525,"long":-4.466937,"isAirport":false,"crsCode":"CAU","iataAirportCode":null},{"stationName":"Cefn-Y-Bedd","lat":53.098511,"long":-3.031972,"isAirport":false,"crsCode":"CYB","iataAirportCode":null},{"stationName":"Chadwell Heath","lat":51.567905,"long":0.128263,"isAirport":false,"crsCode":"CTH","iataAirportCode":null},{"stationName":"Chafford Hundred","lat":51.502792,"long":0.290938,"isAirport":false,"crsCode":"CFH","iataAirportCode":null},{"stationName":"Chalfont & Latimer","lat":51.66835,"long":-0.560646,"isAirport":false,"crsCode":"CFO","iataAirportCode":null},{"stationName":"Chalkwell","lat":51.53883,"long":0.6706,"isAirport":false,"crsCode":"CHW","iataAirportCode":null},{"stationName":"Chandlers Ford","lat":50.983,"long":-1.3845,"isAirport":false,"crsCode":"CFR","iataAirportCode":null},{"stationName":"Chapel-En-Le-Frith","lat":53.312405,"long":-1.918915,"isAirport":false,"crsCode":"CEF","iataAirportCode":null},{"stationName":"Chapeltown","lat":53.464046,"long":-1.466743,"isAirport":false,"crsCode":"CLN","iataAirportCode":null},{"stationName":"Chapleton","lat":51.01577,"long":-4.024398,"isAirport":false,"crsCode":"CPN","iataAirportCode":null},{"stationName":"Chappel & Wakes Colne","lat":51.925312,"long":0.758944,"isAirport":false,"crsCode":"CWC","iataAirportCode":null},{"stationName":"Charing","lat":51.208649,"long":0.790337,"isAirport":false,"crsCode":"CHG","iataAirportCode":null},{"stationName":"Charing Cross Glasgow","lat":55.865345,"long":-4.270689,"isAirport":false,"crsCode":"CHC","iataAirportCode":null},{"stationName":"Charlbury","lat":51.872929,"long":-1.490133,"isAirport":false,"crsCode":"CBY","iataAirportCode":null},{"stationName":"Charlton","lat":51.486904,"long":0.030852,"isAirport":false,"crsCode":"CTN","iataAirportCode":null},{"stationName":"Chartham","lat":51.256958,"long":1.018303,"isAirport":false,"crsCode":"CRT","iataAirportCode":null},{"stationName":"Chassen Road","lat":53.44605,"long":-2.368171,"isAirport":false,"crsCode":"CSR","iataAirportCode":null},{"stationName":"Chatelherault","lat":55.76521,"long":-4.00466,"isAirport":false,"crsCode":"CTE","iataAirportCode":null},{"stationName":"Chatham","lat":51.381161,"long":0.520559,"isAirport":false,"crsCode":"CTM","iataAirportCode":null},{"stationName":"Chathill","lat":55.536404,"long":-1.706846,"isAirport":false,"crsCode":"CHT","iataAirportCode":null},{"stationName":"Cheadle Hulme","lat":53.375956,"long":-2.188125,"isAirport":false,"crsCode":"CHU","iataAirportCode":null},{"stationName":"Cheam","lat":51.35601,"long":-0.2148,"isAirport":false,"crsCode":"CHE","iataAirportCode":null},{"stationName":"Cheddington","lat":51.857908,"long":-0.662168,"isAirport":false,"crsCode":"CED","iataAirportCode":null},{"stationName":"Chelford","lat":53.270744,"long":-2.280375,"isAirport":false,"crsCode":"CEL","iataAirportCode":null},{"stationName":"Chelmsford","lat":51.736595,"long":0.469316,"isAirport":false,"crsCode":"CHM","iataAirportCode":null},{"stationName":"Chelsfield","lat":51.35603,"long":0.108373,"isAirport":false,"crsCode":"CLD","iataAirportCode":null},{"stationName":"Cheltenham Spa","lat":51.896465,"long":-2.100245,"isAirport":false,"crsCode":"CNM","iataAirportCode":null},{"stationName":"Chepstow","lat":51.640137,"long":-2.67193,"isAirport":false,"crsCode":"CPW","iataAirportCode":null},{"stationName":"Cherry Tree","lat":53.732868,"long":-2.518401,"isAirport":false,"crsCode":"CYT","iataAirportCode":null},{"stationName":"Chertsey","lat":51.387108,"long":-0.509667,"isAirport":false,"crsCode":"CHY","iataAirportCode":null},{"stationName":"Cheshunt","lat":51.702747,"long":-0.023171,"isAirport":false,"crsCode":"CHN","iataAirportCode":null},{"stationName":"Chessington North","lat":51.364483,"long":-0.300661,"isAirport":false,"crsCode":"CSN","iataAirportCode":null},{"stationName":"Chessington South","lat":51.356491,"long":-0.308144,"isAirport":false,"crsCode":"CSS","iataAirportCode":null},{"stationName":"Chester","lat":53.196815,"long":-2.880152,"isAirport":false,"crsCode":"CTR","iataAirportCode":null},{"stationName":"Chester Road","lat":52.535575,"long":-1.832582,"isAirport":false,"crsCode":"CRD","iataAirportCode":null},{"stationName":"Chesterfield","lat":53.238209,"long":-1.42011,"isAirport":false,"crsCode":"CHD","iataAirportCode":null},{"stationName":"Chester-Le-Street","lat":54.854885,"long":-1.577847,"isAirport":false,"crsCode":"CLS","iataAirportCode":null},{"stationName":"Chestfield & Swalecliffe","lat":51.360004,"long":1.068182,"isAirport":false,"crsCode":"CSW","iataAirportCode":null},{"stationName":"Chetnole","lat":50.866428,"long":-2.574072,"isAirport":false,"crsCode":"CNO","iataAirportCode":null},{"stationName":"Chichester","lat":50.831821,"long":-0.783032,"isAirport":false,"crsCode":"CCH","iataAirportCode":null},{"stationName":"Chilham","lat":51.244549,"long":0.975937,"isAirport":false,"crsCode":"CIL","iataAirportCode":null},{"stationName":"Chilworth","lat":51.21553,"long":-0.523795,"isAirport":false,"crsCode":"CHL","iataAirportCode":null},{"stationName":"Chingford","lat":51.63385,"long":0.009955,"isAirport":false,"crsCode":"CHI","iataAirportCode":null},{"stationName":"Chinley","lat":53.340275,"long":-1.9444,"isAirport":false,"crsCode":"CLY","iataAirportCode":null},{"stationName":"Chippenham","lat":51.462162,"long":-2.115123,"isAirport":false,"crsCode":"CPM","iataAirportCode":null},{"stationName":"Chipstead","lat":51.309444,"long":-0.169259,"isAirport":false,"crsCode":"CHP","iataAirportCode":null},{"stationName":"Chirk","lat":52.932793,"long":-3.066708,"isAirport":false,"crsCode":"CRK","iataAirportCode":null},{"stationName":"Chislehurst","lat":51.405506,"long":0.057437,"isAirport":false,"crsCode":"CIT","iataAirportCode":null},{"stationName":"Chiswick","lat":51.4809,"long":-0.267538,"isAirport":false,"crsCode":"CHK","iataAirportCode":null},{"stationName":"Cholsey","lat":51.570135,"long":-1.157942,"isAirport":false,"crsCode":"CHO","iataAirportCode":null},{"stationName":"Chorley","lat":53.652428,"long":-2.626693,"isAirport":false,"crsCode":"CRL","iataAirportCode":null},{"stationName":"Chorleywood","lat":51.654188,"long":-0.51846,"isAirport":false,"crsCode":"CLW","iataAirportCode":null},{"stationName":"Christchurch","lat":50.738148,"long":-1.784566,"isAirport":false,"crsCode":"CHR","iataAirportCode":null},{"stationName":"Christs Hospital","lat":51.050629,"long":-0.363538,"isAirport":false,"crsCode":"CHH","iataAirportCode":null},{"stationName":"Church & Oswaldtwistle","lat":53.750431,"long":-2.391216,"isAirport":false,"crsCode":"CTW","iataAirportCode":null},{"stationName":"Church Fenton","lat":53.827671,"long":-1.226652,"isAirport":false,"crsCode":"CHF","iataAirportCode":null},{"stationName":"Church Stretton","lat":52.536606,"long":-2.803485,"isAirport":false,"crsCode":"CTT","iataAirportCode":null},{"stationName":"Cilmeri","lat":52.150936,"long":-3.45719,"isAirport":false,"crsCode":"CIM","iataAirportCode":null},{"stationName":"City Thameslink","lat":51.514336,"long":-0.103412,"isAirport":false,"crsCode":"CTK","iataAirportCode":null},{"stationName":"Clacton-On-Sea","lat":51.793953,"long":1.154134,"isAirport":false,"crsCode":"CLT","iataAirportCode":null},{"stationName":"Clandon","lat":51.263832,"long":-0.503622,"isAirport":false,"crsCode":"CLA","iataAirportCode":null},{"stationName":"Clapham (Nth Yorkshire)","lat":54.105392,"long":-2.409858,"isAirport":false,"crsCode":"CPY","iataAirportCode":null},{"stationName":"Clapham High Street","lat":51.46534,"long":-0.1328,"isAirport":false,"crsCode":"CLP","iataAirportCode":null},{"stationName":"Clapham Junction","lat":51.464134,"long":-0.170281,"isAirport":false,"crsCode":"CLJ","iataAirportCode":null},{"stationName":"Clapton","lat":51.56213,"long":-0.056685,"isAirport":false,"crsCode":"CPT","iataAirportCode":null},{"stationName":"Clarbeston Road","lat":51.852207,"long":-4.88221,"isAirport":false,"crsCode":"CLR","iataAirportCode":null},{"stationName":"Clarkston","lat":55.789753,"long":-4.275865,"isAirport":false,"crsCode":"CKS","iataAirportCode":null},{"stationName":"Claverdon","lat":52.276424,"long":-1.696566,"isAirport":false,"crsCode":"CLV","iataAirportCode":null},{"stationName":"Claygate","lat":51.360664,"long":-0.348207,"isAirport":false,"crsCode":"CLG","iataAirportCode":null},{"stationName":"Cleethorpes","lat":53.56316,"long":-0.029584,"isAirport":false,"crsCode":"CLE","iataAirportCode":null},{"stationName":"Cleland","lat":55.804073,"long":-3.909695,"isAirport":false,"crsCode":"CEA","iataAirportCode":null},{"stationName":"Clifton","lat":53.522503,"long":-2.314811,"isAirport":false,"crsCode":"CLI","iataAirportCode":null},{"stationName":"Clifton Down","lat":51.46423,"long":-2.611761,"isAirport":false,"crsCode":"CFN","iataAirportCode":null},{"stationName":"Clitheroe","lat":53.87345,"long":-2.394365,"isAirport":false,"crsCode":"CLH","iataAirportCode":null},{"stationName":"Clock House","lat":51.408096,"long":-0.041668,"isAirport":false,"crsCode":"CLK","iataAirportCode":null},{"stationName":"Clunderwen","lat":51.8405,"long":-4.731915,"isAirport":false,"crsCode":"CUW","iataAirportCode":null},{"stationName":"Clydebank","lat":55.900562,"long":-4.403927,"isAirport":false,"crsCode":"CYK","iataAirportCode":null},{"stationName":"Coatbridge Central","lat":55.863213,"long":-4.032443,"isAirport":false,"crsCode":"CBC","iataAirportCode":null},{"stationName":"Coatbridge Sunnyside","lat":55.866886,"long":-4.027847,"isAirport":false,"crsCode":"CBS","iataAirportCode":null},{"stationName":"Coatdyke","lat":55.864567,"long":-4.005343,"isAirport":false,"crsCode":"COA","iataAirportCode":null},{"stationName":"Cobham & Stoke Dabernon","lat":51.318077,"long":-0.389917,"isAirport":false,"crsCode":"CSD","iataAirportCode":null},{"stationName":"Codsall","lat":52.627262,"long":-2.200891,"isAirport":false,"crsCode":"CSL","iataAirportCode":null},{"stationName":"Cogan","lat":51.445396,"long":-3.189974,"isAirport":false,"crsCode":"CGN","iataAirportCode":null},{"stationName":"Colchester Station","lat":51.900478,"long":0.894085,"isAirport":false,"crsCode":"COL","iataAirportCode":null},{"stationName":"Colchester Town","lat":51.886505,"long":0.904055,"isAirport":false,"crsCode":"CET","iataAirportCode":null},{"stationName":"Coleshill Parkway","lat":52.5164,"long":-1.7081,"isAirport":false,"crsCode":"CEH","iataAirportCode":null},{"stationName":"Collingham","lat":53.144047,"long":-0.748588,"isAirport":false,"crsCode":"CLM","iataAirportCode":null},{"stationName":"Collington","lat":50.839272,"long":0.457142,"isAirport":false,"crsCode":"CLL","iataAirportCode":null},{"stationName":"Colne","lat":53.85478,"long":-2.181087,"isAirport":false,"crsCode":"CNE","iataAirportCode":null},{"stationName":"Colwall","lat":52.080284,"long":-2.357489,"isAirport":false,"crsCode":"CWL","iataAirportCode":null},{"stationName":"Colwyn Bay","lat":53.296349,"long":-3.725462,"isAirport":false,"crsCode":"CWB","iataAirportCode":null},{"stationName":"Combe","lat":51.832277,"long":-1.392817,"isAirport":false,"crsCode":"CME","iataAirportCode":null},{"stationName":"Commondale","lat":54.481018,"long":-0.97514,"isAirport":false,"crsCode":"COM","iataAirportCode":null},{"stationName":"Congleton","lat":53.157637,"long":-2.192754,"isAirport":false,"crsCode":"CNG","iataAirportCode":null},{"stationName":"Conisbrough","lat":53.48885,"long":-1.234333,"isAirport":false,"crsCode":"CNS","iataAirportCode":null},{"stationName":"Connel Ferry","lat":56.451981,"long":-5.384973,"isAirport":false,"crsCode":"CON","iataAirportCode":null},{"stationName":"Conon Bridge","lat":57.5617,"long":-4.4404,"isAirport":false,"crsCode":"CBD","iataAirportCode":null},{"stationName":"Cononley","lat":53.917351,"long":-2.010631,"isAirport":false,"crsCode":"CEY","iataAirportCode":null},{"stationName":"Conway Park","lat":53.386219,"long":-3.026886,"isAirport":false,"crsCode":"CNP","iataAirportCode":null},{"stationName":"Conwy","lat":53.280093,"long":-3.83046,"isAirport":false,"crsCode":"CNW","iataAirportCode":null},{"stationName":"Cooden Beach","lat":50.83271,"long":0.426969,"isAirport":false,"crsCode":"COB","iataAirportCode":null},{"stationName":"Cookham","lat":51.556873,"long":-0.721948,"isAirport":false,"crsCode":"COO","iataAirportCode":null},{"stationName":"Cooksbridge","lat":50.903938,"long":-0.010272,"isAirport":false,"crsCode":"CBR","iataAirportCode":null},{"stationName":"Coombe","lat":50.44479,"long":-4.481655,"isAirport":false,"crsCode":"COE","iataAirportCode":null},{"stationName":"Copplestone","lat":50.814228,"long":-3.751624,"isAirport":false,"crsCode":"COP","iataAirportCode":null},{"stationName":"Corbridge","lat":54.966152,"long":-2.017141,"isAirport":false,"crsCode":"CRB","iataAirportCode":null},{"stationName":"Corby","lat":52.489196,"long":-0.687944,"isAirport":false,"crsCode":"COR","iataAirportCode":null},{"stationName":"Corkerhill","lat":55.836494,"long":-4.323322,"isAirport":false,"crsCode":"CKH","iataAirportCode":null},{"stationName":"Corkickle","lat":54.541657,"long":-3.582155,"isAirport":false,"crsCode":"CKL","iataAirportCode":null},{"stationName":"Corpach","lat":56.842724,"long":-5.121662,"isAirport":false,"crsCode":"CPA","iataAirportCode":null},{"stationName":"Corrour","lat":56.760181,"long":-4.690966,"isAirport":false,"crsCode":"CRR","iataAirportCode":null},{"stationName":"Coryton","lat":51.520512,"long":-3.230858,"isAirport":false,"crsCode":"COY","iataAirportCode":null},{"stationName":"Coseley","lat":52.545738,"long":-2.086051,"isAirport":false,"crsCode":"CSY","iataAirportCode":null},{"stationName":"Cosford","lat":52.645031,"long":-2.301479,"isAirport":false,"crsCode":"COS","iataAirportCode":null},{"stationName":"Cosham","lat":50.841644,"long":-1.068259,"isAirport":false,"crsCode":"CSA","iataAirportCode":null},{"stationName":"Cottingham","lat":53.781826,"long":-0.406402,"isAirport":false,"crsCode":"CGM","iataAirportCode":null},{"stationName":"Cottingley","lat":53.767437,"long":-1.588832,"isAirport":false,"crsCode":"COT","iataAirportCode":null},{"stationName":"Coulsdon South","lat":51.315231,"long":-0.13746,"isAirport":false,"crsCode":"CDS","iataAirportCode":null},{"stationName":"Coulsdon Town","lat":51.32243,"long":-0.13429,"isAirport":false,"crsCode":"CDN","iataAirportCode":null},{"stationName":"Coventry","lat":52.400787,"long":-1.513466,"isAirport":false,"crsCode":"COV","iataAirportCode":null},{"stationName":"Coventry Arena","lat":52.447032,"long":-1.494559,"isAirport":false,"crsCode":"CAA","iataAirportCode":null},{"stationName":"Cowden","lat":51.155441,"long":0.110653,"isAirport":false,"crsCode":"CWN","iataAirportCode":null},{"stationName":"Cowdenbeath","lat":56.111679,"long":-3.344314,"isAirport":false,"crsCode":"COW","iataAirportCode":null},{"stationName":"Cradley Heath","lat":52.469177,"long":-2.08976,"isAirport":false,"crsCode":"CRA","iataAirportCode":null},{"stationName":"Craigendoran","lat":55.99485,"long":-4.711291,"isAirport":false,"crsCode":"CGD","iataAirportCode":null},{"stationName":"Cramlington","lat":55.088604,"long":-1.598887,"isAirport":false,"crsCode":"CRM","iataAirportCode":null},{"stationName":"Cranbrook (Devon)","lat":50.7501,"long":-3.4206,"isAirport":false,"crsCode":"CBK","iataAirportCode":null},{"stationName":"Craven Arms","lat":52.441975,"long":-2.837077,"isAirport":false,"crsCode":"CRV","iataAirportCode":null},{"stationName":"Crawley","lat":51.111874,"long":-0.187083,"isAirport":false,"crsCode":"CRW","iataAirportCode":null},{"stationName":"Crayford","lat":51.448273,"long":0.178826,"isAirport":false,"crsCode":"CRY","iataAirportCode":null},{"stationName":"Crediton","lat":50.783375,"long":-3.646912,"isAirport":false,"crsCode":"CDI","iataAirportCode":null},{"stationName":"Cressing","lat":51.852028,"long":0.580186,"isAirport":false,"crsCode":"CES","iataAirportCode":null},{"stationName":"Cressington","lat":53.3588,"long":-2.91172,"isAirport":false,"crsCode":"CSG","iataAirportCode":null},{"stationName":"Creswell (Derbys)","lat":53.264008,"long":-1.215865,"isAirport":false,"crsCode":"CWD","iataAirportCode":null},{"stationName":"Crewe","lat":53.089607,"long":-2.432987,"isAirport":false,"crsCode":"CRE","iataAirportCode":null},{"stationName":"Crewkerne","lat":50.873337,"long":-2.778815,"isAirport":false,"crsCode":"CKN","iataAirportCode":null},{"stationName":"Crews Hill","lat":51.684334,"long":-0.106441,"isAirport":false,"crsCode":"CWH","iataAirportCode":null},{"stationName":"Crianlarich","lat":56.389652,"long":-4.617778,"isAirport":false,"crsCode":"CNR","iataAirportCode":null},{"stationName":"Criccieth","lat":52.918312,"long":-4.236972,"isAirport":false,"crsCode":"CCC","iataAirportCode":null},{"stationName":"Cricklewood","lat":51.559227,"long":-0.214071,"isAirport":false,"crsCode":"CRI","iataAirportCode":null},{"stationName":"Croftfoot","lat":55.818455,"long":-4.229643,"isAirport":false,"crsCode":"CFF","iataAirportCode":null},{"stationName":"Crofton Park","lat":51.454777,"long":-0.03678,"isAirport":false,"crsCode":"CFT","iataAirportCode":null},{"stationName":"Cromer","lat":52.930595,"long":1.292778,"isAirport":false,"crsCode":"CMR","iataAirportCode":null},{"stationName":"Cromford","lat":53.112915,"long":-1.548788,"isAirport":false,"crsCode":"CMF","iataAirportCode":null},{"stationName":"Crookston","lat":55.84388,"long":-4.36049,"isAirport":false,"crsCode":"CKT","iataAirportCode":null},{"stationName":"Cross Gates","lat":53.804638,"long":-1.451798,"isAirport":false,"crsCode":"CRG","iataAirportCode":null},{"stationName":"Crossflatts","lat":53.858829,"long":-1.844886,"isAirport":false,"crsCode":"CFL","iataAirportCode":null},{"stationName":"Crosshill","lat":55.833225,"long":-4.257648,"isAirport":false,"crsCode":"COI","iataAirportCode":null},{"stationName":"Crosskeys","lat":51.621,"long":-3.1261,"isAirport":false,"crsCode":"CKY","iataAirportCode":null},{"stationName":"Crossmyloof","lat":55.833626,"long":-4.284813,"isAirport":false,"crsCode":"CMY","iataAirportCode":null},{"stationName":"Croston","lat":53.66756,"long":-2.777717,"isAirport":false,"crsCode":"CSO","iataAirportCode":null},{"stationName":"Crouch Hill","lat":51.571205,"long":-0.116907,"isAirport":false,"crsCode":"CRH","iataAirportCode":null},{"stationName":"Crowborough","lat":51.046085,"long":0.188422,"isAirport":false,"crsCode":"COH","iataAirportCode":null},{"stationName":"Crowhurst","lat":50.888702,"long":0.500984,"isAirport":false,"crsCode":"CWU","iataAirportCode":null},{"stationName":"Crowle","lat":53.589725,"long":-0.817042,"isAirport":false,"crsCode":"CWE","iataAirportCode":null},{"stationName":"Crowthorne","lat":51.366356,"long":-0.819194,"isAirport":false,"crsCode":"CRN","iataAirportCode":null},{"stationName":"Croy","lat":55.955734,"long":-4.035697,"isAirport":false,"crsCode":"CRO","iataAirportCode":null},{"stationName":"Crystal Palace","lat":51.417603,"long":-0.072899,"isAirport":false,"crsCode":"CYP","iataAirportCode":null},{"stationName":"Cuddington","lat":53.23991,"long":-2.599329,"isAirport":false,"crsCode":"CUD","iataAirportCode":null},{"stationName":"Cuffley","lat":51.708675,"long":-0.109761,"isAirport":false,"crsCode":"CUF","iataAirportCode":null},{"stationName":"Culham","lat":51.653773,"long":-1.236445,"isAirport":false,"crsCode":"CUM","iataAirportCode":null},{"stationName":"Culrain","lat":57.919842,"long":-4.405676,"isAirport":false,"crsCode":"CUA","iataAirportCode":null},{"stationName":"Cumbernauld","lat":55.941326,"long":-3.982089,"isAirport":false,"crsCode":"CUB","iataAirportCode":null},{"stationName":"Cupar","lat":56.317043,"long":-3.008772,"isAirport":false,"crsCode":"CUP","iataAirportCode":null},{"stationName":"Curriehill","lat":55.901703,"long":-3.317849,"isAirport":false,"crsCode":"CUH","iataAirportCode":null},{"stationName":"Cuxton","lat":51.374298,"long":0.462693,"isAirport":false,"crsCode":"CUX","iataAirportCode":null},{"stationName":"Cwmbach","lat":51.701885,"long":-3.413774,"isAirport":false,"crsCode":"CMH","iataAirportCode":null},{"stationName":"Cwmbran","lat":51.656544,"long":-3.016233,"isAirport":false,"crsCode":"CWM","iataAirportCode":null},{"stationName":"Cynghordy","lat":52.051689,"long":-3.747095,"isAirport":false,"crsCode":"CYN","iataAirportCode":null},{"stationName":"Dagenham Dock","lat":51.526237,"long":0.14505,"isAirport":false,"crsCode":"DDK","iataAirportCode":null},{"stationName":"Dagenham East L.T.","lat":51.532065,"long":0.146965,"isAirport":false,"crsCode":"ZDE","iataAirportCode":null},{"stationName":"Daisy Hill","lat":53.539389,"long":-2.516212,"isAirport":false,"crsCode":"DSY","iataAirportCode":null},{"stationName":"Dalgety Bay","lat":56.044178,"long":-3.354809,"isAirport":false,"crsCode":"DAG","iataAirportCode":null},{"stationName":"Dalmally","lat":56.400272,"long":-4.9832,"isAirport":false,"crsCode":"DAL","iataAirportCode":null},{"stationName":"Dalmarnock","lat":55.839371,"long":-4.21647,"isAirport":false,"crsCode":"DAK","iataAirportCode":null},{"stationName":"Dalmeny","lat":55.986362,"long":-3.381645,"isAirport":false,"crsCode":"DAM","iataAirportCode":null},{"stationName":"Dalmuir","lat":55.911793,"long":-4.427038,"isAirport":false,"crsCode":"DMR","iataAirportCode":null},{"stationName":"Dalreoch","lat":55.947365,"long":-4.578226,"isAirport":false,"crsCode":"DLR","iataAirportCode":null},{"stationName":"Dalry","lat":55.705395,"long":-4.711899,"isAirport":false,"crsCode":"DLY","iataAirportCode":null},{"stationName":"Dalston (Cumbria)","lat":54.846203,"long":-2.988866,"isAirport":false,"crsCode":"DLS","iataAirportCode":null},{"stationName":"Dalston Junction","lat":51.546139,"long":-0.07544,"isAirport":false,"crsCode":"DLJ","iataAirportCode":null},{"stationName":"Dalston Kingsland","lat":51.548035,"long":-0.074594,"isAirport":false,"crsCode":"DLK","iataAirportCode":null},{"stationName":"Dalton","lat":54.15424,"long":-3.179031,"isAirport":false,"crsCode":"DLT","iataAirportCode":null},{"stationName":"Dalwhinnie","lat":56.934334,"long":-4.246498,"isAirport":false,"crsCode":"DLW","iataAirportCode":null},{"stationName":"Danby","lat":54.466068,"long":-0.910704,"isAirport":false,"crsCode":"DNY","iataAirportCode":null},{"stationName":"Danescourt","lat":51.505199,"long":-3.23332,"isAirport":false,"crsCode":"DCT","iataAirportCode":null},{"stationName":"Danzey","lat":52.324329,"long":-1.819493,"isAirport":false,"crsCode":"DZY","iataAirportCode":null},{"stationName":"Darlington","lat":54.520462,"long":-1.54732,"isAirport":false,"crsCode":"DAR","iataAirportCode":null},{"stationName":"Darnall","lat":53.381084,"long":-1.410661,"isAirport":false,"crsCode":"DAN","iataAirportCode":null},{"stationName":"Darsham","lat":52.272812,"long":1.522343,"isAirport":false,"crsCode":"DSM","iataAirportCode":null},{"stationName":"Dartford","lat":51.447548,"long":0.217643,"isAirport":false,"crsCode":"DFD","iataAirportCode":null},{"stationName":"Darton","lat":53.58836,"long":-1.531646,"isAirport":false,"crsCode":"DRT","iataAirportCode":null},{"stationName":"Darwen","lat":53.69804,"long":-2.464958,"isAirport":false,"crsCode":"DWN","iataAirportCode":null},{"stationName":"Datchet","lat":51.483303,"long":-0.579978,"isAirport":false,"crsCode":"DAT","iataAirportCode":null},{"stationName":"Davenport","lat":53.390719,"long":-2.153234,"isAirport":false,"crsCode":"DVN","iataAirportCode":null},{"stationName":"Dawlish","lat":50.580692,"long":-3.464583,"isAirport":false,"crsCode":"DWL","iataAirportCode":null},{"stationName":"Dawlish Warren","lat":50.599311,"long":-3.443903,"isAirport":false,"crsCode":"DWW","iataAirportCode":null},{"stationName":"Deal","lat":51.223129,"long":1.398559,"isAirport":false,"crsCode":"DEA","iataAirportCode":null},{"stationName":"Dean","lat":51.042629,"long":-1.634802,"isAirport":false,"crsCode":"DEN","iataAirportCode":null},{"stationName":"Deansgate","lat":53.473961,"long":-2.250061,"isAirport":false,"crsCode":"DGT","iataAirportCode":null},{"stationName":"Deganwy","lat":53.294739,"long":-3.833424,"isAirport":false,"crsCode":"DGY","iataAirportCode":null},{"stationName":"Deighton","lat":53.669018,"long":-1.751739,"isAirport":false,"crsCode":"DHN","iataAirportCode":null},{"stationName":"Delamere","lat":53.228767,"long":-2.666577,"isAirport":false,"crsCode":"DLM","iataAirportCode":null},{"stationName":"Denby Dale","lat":53.572628,"long":-1.663215,"isAirport":false,"crsCode":"DBD","iataAirportCode":null},{"stationName":"Denham","lat":51.578495,"long":-0.497633,"isAirport":false,"crsCode":"DNM","iataAirportCode":null},{"stationName":"Denham Golf Club","lat":51.580544,"long":-0.517774,"isAirport":false,"crsCode":"DGC","iataAirportCode":null},{"stationName":"Denmark Hill","lat":51.468243,"long":-0.089475,"isAirport":false,"crsCode":"DMK","iataAirportCode":null},{"stationName":"Dent","lat":54.282597,"long":-2.363987,"isAirport":false,"crsCode":"DNT","iataAirportCode":null},{"stationName":"Denton","lat":53.457087,"long":-2.131648,"isAirport":false,"crsCode":"DTN","iataAirportCode":null},{"stationName":"Deptford","lat":51.478897,"long":-0.02711,"isAirport":false,"crsCode":"DEP","iataAirportCode":null},{"stationName":"Derby","lat":52.916381,"long":-1.462555,"isAirport":false,"crsCode":"DBY","iataAirportCode":null},{"stationName":"Derby Road","lat":52.04953,"long":1.182332,"isAirport":false,"crsCode":"DBR","iataAirportCode":null},{"stationName":"Dereham Market Place","lat":52.684896,"long":0.945983,"isAirport":false,"crsCode":"DEB","iataAirportCode":null},{"stationName":"Devonport","lat":50.378132,"long":-4.171534,"isAirport":false,"crsCode":"DPT","iataAirportCode":null},{"stationName":"Dewsbury","lat":53.692089,"long":-1.633487,"isAirport":false,"crsCode":"DEW","iataAirportCode":null},{"stationName":"Didcot Parkway","lat":51.611275,"long":-1.242614,"isAirport":false,"crsCode":"DID","iataAirportCode":null},{"stationName":"Digby & Sowton","lat":50.716434,"long":-3.474574,"isAirport":false,"crsCode":"DIG","iataAirportCode":null},{"stationName":"Dilton Marsh","lat":51.248928,"long":-2.207723,"isAirport":false,"crsCode":"DMH","iataAirportCode":null},{"stationName":"Dinas Powys","lat":51.431614,"long":-3.21839,"isAirport":false,"crsCode":"DNS","iataAirportCode":null},{"stationName":"Dinas Rhondda","lat":51.617073,"long":-3.437123,"isAirport":false,"crsCode":"DMG","iataAirportCode":null},{"stationName":"Dingle Road","lat":51.440109,"long":-3.179776,"isAirport":false,"crsCode":"DGL","iataAirportCode":null},{"stationName":"Dingwall","lat":57.594238,"long":-4.422611,"isAirport":false,"crsCode":"DIN","iataAirportCode":null},{"stationName":"Dinsdale","lat":54.51474,"long":-1.467051,"isAirport":false,"crsCode":"DND","iataAirportCode":null},{"stationName":"Dinting","lat":53.449382,"long":-1.970276,"isAirport":false,"crsCode":"DTG","iataAirportCode":null},{"stationName":"Disley","lat":53.358146,"long":-2.042465,"isAirport":false,"crsCode":"DSL","iataAirportCode":null},{"stationName":"Diss","lat":52.373096,"long":1.123274,"isAirport":false,"crsCode":"DIS","iataAirportCode":null},{"stationName":"Dockyard","lat":50.382553,"long":-4.175957,"isAirport":false,"crsCode":"DOC","iataAirportCode":null},{"stationName":"Dodworth","lat":53.545216,"long":-1.530617,"isAirport":false,"crsCode":"DOD","iataAirportCode":null},{"stationName":"Dolau","lat":52.295223,"long":-3.263955,"isAirport":false,"crsCode":"DOL","iataAirportCode":null},{"stationName":"Doleham","lat":50.918686,"long":0.610732,"isAirport":false,"crsCode":"DLH","iataAirportCode":null},{"stationName":"Dolgarrog","lat":53.186123,"long":-3.822808,"isAirport":false,"crsCode":"DLG","iataAirportCode":null},{"stationName":"Dolwyddelan","lat":53.052105,"long":-3.884288,"isAirport":false,"crsCode":"DWD","iataAirportCode":null},{"stationName":"Doncaster","lat":53.521469,"long":-1.140225,"isAirport":false,"crsCode":"DON","iataAirportCode":null},{"stationName":"Dorchester South","lat":50.708752,"long":-2.437593,"isAirport":false,"crsCode":"DCH","iataAirportCode":null},{"stationName":"Dorchester West","lat":50.710526,"long":-2.443274,"isAirport":false,"crsCode":"DCW","iataAirportCode":null},{"stationName":"Dore & Totley","lat":53.327625,"long":-1.514997,"isAirport":false,"crsCode":"DOR","iataAirportCode":null},{"stationName":"Dorking Deepdene","lat":51.238918,"long":-0.323921,"isAirport":false,"crsCode":"DPD","iataAirportCode":null},{"stationName":"Dorking Station","lat":51.241615,"long":-0.323822,"isAirport":false,"crsCode":"DKG","iataAirportCode":null},{"stationName":"Dorking West","lat":51.236443,"long":-0.339762,"isAirport":false,"crsCode":"DKT","iataAirportCode":null},{"stationName":"Dormans","lat":51.15567,"long":-0.005183,"isAirport":false,"crsCode":"DMS","iataAirportCode":null},{"stationName":"Dorridge","lat":52.371861,"long":-1.753209,"isAirport":false,"crsCode":"DDG","iataAirportCode":null},{"stationName":"Dove Holes","lat":53.300005,"long":-1.890678,"isAirport":false,"crsCode":"DVH","iataAirportCode":null},{"stationName":"Dover Priory","lat":51.125988,"long":1.304227,"isAirport":false,"crsCode":"DVP","iataAirportCode":null},{"stationName":"Dovercourt","lat":51.938892,"long":1.280724,"isAirport":false,"crsCode":"DVC","iataAirportCode":null},{"stationName":"Dovey Junction","lat":52.564133,"long":-3.925273,"isAirport":false,"crsCode":"DVY","iataAirportCode":null},{"stationName":"Downham Market","lat":52.60471,"long":0.365751,"isAirport":false,"crsCode":"DOW","iataAirportCode":null},{"stationName":"Drayton Green","lat":51.516326,"long":-0.330089,"isAirport":false,"crsCode":"DRG","iataAirportCode":null},{"stationName":"Drayton Manor","lat":52.61095,"long":-1.71345,"isAirport":false,"crsCode":"DRY","iataAirportCode":null},{"stationName":"Drayton Park","lat":51.552124,"long":-0.104723,"isAirport":false,"crsCode":"DYP","iataAirportCode":null},{"stationName":"Drem","lat":56.005981,"long":-2.785752,"isAirport":false,"crsCode":"DRM","iataAirportCode":null},{"stationName":"Driffield","lat":54.001526,"long":-0.434627,"isAirport":false,"crsCode":"DRF","iataAirportCode":null},{"stationName":"Drigg","lat":54.376968,"long":-3.444066,"isAirport":false,"crsCode":"DRI","iataAirportCode":null},{"stationName":"Droitwich Spa","lat":52.26862,"long":-2.158239,"isAirport":false,"crsCode":"DTW","iataAirportCode":null},{"stationName":"Dronfield","lat":53.301357,"long":-1.468768,"isAirport":false,"crsCode":"DRO","iataAirportCode":null},{"stationName":"Drumchapel","lat":55.904926,"long":-4.364204,"isAirport":false,"crsCode":"DMC","iataAirportCode":null},{"stationName":"Drumfrochar","lat":55.941292,"long":-4.774822,"isAirport":false,"crsCode":"DFR","iataAirportCode":null},{"stationName":"Drumgelloch","lat":55.867233,"long":-3.95114,"isAirport":false,"crsCode":"DRU","iataAirportCode":null},{"stationName":"Drumry","lat":55.904495,"long":-4.386583,"isAirport":false,"crsCode":"DMY","iataAirportCode":null},{"stationName":"Duddeston","lat":52.488018,"long":-1.871842,"isAirport":false,"crsCode":"DUD","iataAirportCode":null},{"stationName":"Dudley Port","lat":52.524517,"long":-2.049401,"isAirport":false,"crsCode":"DDP","iataAirportCode":null},{"stationName":"Duffield","lat":52.987713,"long":-1.486035,"isAirport":false,"crsCode":"DFI","iataAirportCode":null},{"stationName":"Duirinish","lat":57.319847,"long":-5.692103,"isAirport":false,"crsCode":"DRN","iataAirportCode":null},{"stationName":"Duke Street","lat":55.859207,"long":-4.212814,"isAirport":false,"crsCode":"DST","iataAirportCode":null},{"stationName":"Dullingham","lat":52.200943,"long":0.366197,"isAirport":false,"crsCode":"DUL","iataAirportCode":null},{"stationName":"Dumbarton Central","lat":55.946705,"long":-4.56697,"isAirport":false,"crsCode":"DBC","iataAirportCode":null},{"stationName":"Dumbarton East","lat":55.942478,"long":-4.55387,"isAirport":false,"crsCode":"DBE","iataAirportCode":null},{"stationName":"Dumbreck","lat":55.841255,"long":-4.309216,"isAirport":false,"crsCode":"DUM","iataAirportCode":null},{"stationName":"Dumfries","lat":55.072395,"long":-3.605261,"isAirport":false,"crsCode":"DMF","iataAirportCode":null},{"stationName":"Dumpton Park","lat":51.345566,"long":1.426291,"isAirport":false,"crsCode":"DMP","iataAirportCode":null},{"stationName":"Dunbar","lat":55.998428,"long":-2.514625,"isAirport":false,"crsCode":"DUN","iataAirportCode":null},{"stationName":"Dunblane","lat":56.186001,"long":-3.967296,"isAirport":false,"crsCode":"DBL","iataAirportCode":null},{"stationName":"Duncraig","lat":57.336727,"long":-5.637282,"isAirport":false,"crsCode":"DCG","iataAirportCode":null},{"stationName":"Dundee","lat":56.456669,"long":-2.970576,"isAirport":false,"crsCode":"DEE","iataAirportCode":null},{"stationName":"Dunfermline Queen Margaret","lat":56.080706,"long":-3.42164,"isAirport":false,"crsCode":"DFL","iataAirportCode":null},{"stationName":"Dunfermline Town","lat":56.068233,"long":-3.452033,"isAirport":false,"crsCode":"DFE","iataAirportCode":null},{"stationName":"Dunkeld & Birnam","lat":56.557301,"long":-3.578097,"isAirport":false,"crsCode":"DKD","iataAirportCode":null},{"stationName":"Dunlop","lat":55.711926,"long":-4.532435,"isAirport":false,"crsCode":"DNL","iataAirportCode":null},{"stationName":"Dunoon","lat":55.94681,"long":-4.92252,"isAirport":false,"crsCode":"DUO","iataAirportCode":null},{"stationName":"Dunrobin Castle","lat":57.986111,"long":-3.946595,"isAirport":false,"crsCode":"DNO","iataAirportCode":null},{"stationName":"Duns","lat":55.778865,"long":-2.342808,"isAirport":false,"crsCode":"DUU","iataAirportCode":null},{"stationName":"Dunston","lat":54.952164,"long":-1.648648,"isAirport":false,"crsCode":"DOT","iataAirportCode":null},{"stationName":"Dunton Green","lat":51.296425,"long":0.171616,"isAirport":false,"crsCode":"DNG","iataAirportCode":null},{"stationName":"Durham","lat":54.779408,"long":-1.581746,"isAirport":false,"crsCode":"DHM","iataAirportCode":null},{"stationName":"Durrington-On-Sea","lat":50.817463,"long":-0.411463,"isAirport":false,"crsCode":"DUR","iataAirportCode":null},{"stationName":"Dyce","lat":57.205002,"long":-2.191978,"isAirport":false,"crsCode":"DYC","iataAirportCode":null},{"stationName":"Dyffryn Ardudwy","lat":52.78857,"long":-4.104242,"isAirport":false,"crsCode":"DYF","iataAirportCode":null},{"stationName":"Eaglescliffe","lat":54.529449,"long":-1.349426,"isAirport":false,"crsCode":"EAG","iataAirportCode":null},{"stationName":"Ealing Broadway","lat":51.51466,"long":-0.300843,"isAirport":false,"crsCode":"EAL","iataAirportCode":null},{"stationName":"Ealing Common","lat":51.51,"long":-0.28805,"isAirport":false,"crsCode":"ZEC","iataAirportCode":null},{"stationName":"Earlestown","lat":53.451139,"long":-2.637674,"isAirport":false,"crsCode":"ERL","iataAirportCode":null},{"stationName":"Earley","lat":51.441051,"long":-0.917989,"isAirport":false,"crsCode":"EAR","iataAirportCode":null},{"stationName":"Earl's Court L.T.","lat":51.49138,"long":-0.1936,"isAirport":false,"crsCode":"ZET","iataAirportCode":null},{"stationName":"Earlsfield","lat":51.441929,"long":-0.188423,"isAirport":false,"crsCode":"EAD","iataAirportCode":null},{"stationName":"Earlston","lat":55.639072,"long":-2.68,"isAirport":false,"crsCode":"EAS","iataAirportCode":null},{"stationName":"Earlswood (Surrey)","lat":51.227631,"long":-0.171078,"isAirport":false,"crsCode":"ELD","iataAirportCode":null},{"stationName":"Earlswood (West Midlands)","lat":52.366638,"long":-1.861907,"isAirport":false,"crsCode":"EWD","iataAirportCode":null},{"stationName":"East Boldon","lat":54.9468,"long":-1.420767,"isAirport":false,"crsCode":"EBL","iataAirportCode":null},{"stationName":"East Cowes","lat":50.75873,"long":-1.29107,"isAirport":false,"crsCode":"ECW","iataAirportCode":null},{"stationName":"East Croydon","lat":51.375679,"long":-0.093335,"isAirport":false,"crsCode":"ECR","iataAirportCode":null},{"stationName":"East Didsbury","lat":53.410206,"long":-2.22111,"isAirport":false,"crsCode":"EDY","iataAirportCode":null},{"stationName":"East Dulwich","lat":51.460911,"long":-0.081151,"isAirport":false,"crsCode":"EDW","iataAirportCode":null},{"stationName":"East Farleigh","lat":51.255112,"long":0.48498,"isAirport":false,"crsCode":"EFL","iataAirportCode":null},{"stationName":"East Garforth","lat":53.791622,"long":-1.363933,"isAirport":false,"crsCode":"EGF","iataAirportCode":null},{"stationName":"East Grinstead","lat":51.126213,"long":-0.017887,"isAirport":false,"crsCode":"EGR","iataAirportCode":null},{"stationName":"East Kilbride","lat":55.765388,"long":-4.18199,"isAirport":false,"crsCode":"EKL","iataAirportCode":null},{"stationName":"East Malling","lat":51.285748,"long":0.439308,"isAirport":false,"crsCode":"EML","iataAirportCode":null},{"stationName":"East Midlands Parkway","lat":52.862,"long":-1.263,"isAirport":false,"crsCode":"EMD","iataAirportCode":null},{"stationName":"East Tilbury","lat":51.485065,"long":0.412479,"isAirport":false,"crsCode":"ETL","iataAirportCode":null},{"stationName":"East Worthing","lat":50.822071,"long":-0.354517,"isAirport":false,"crsCode":"EWR","iataAirportCode":null},{"stationName":"Eastbourne","lat":50.769085,"long":0.281847,"isAirport":false,"crsCode":"EBN","iataAirportCode":null},{"stationName":"Eastbrook","lat":51.437126,"long":-3.207031,"isAirport":false,"crsCode":"EBK","iataAirportCode":null},{"stationName":"Easterhouse","lat":55.860157,"long":-4.107389,"isAirport":false,"crsCode":"EST","iataAirportCode":null},{"stationName":"Eastham Rake","lat":53.307532,"long":-2.9812,"isAirport":false,"crsCode":"ERA","iataAirportCode":null},{"stationName":"Eastleigh","lat":50.968559,"long":-1.350563,"isAirport":false,"crsCode":"ESL","iataAirportCode":null},{"stationName":"Eastrington","lat":53.75481,"long":-0.786612,"isAirport":false,"crsCode":"EGN","iataAirportCode":null},{"stationName":"Ebbsfleet International","lat":51.443009,"long":0.320887,"isAirport":false,"crsCode":"EBD","iataAirportCode":null},{"stationName":"Ebbw Vale Parkway","lat":51.7573,"long":-3.1965,"isAirport":false,"crsCode":"EBV","iataAirportCode":null},{"stationName":"Ebbw Vale Town","lat":51.782007,"long":-3.205996,"isAirport":false,"crsCode":"EBB","iataAirportCode":null},{"stationName":"Eccles","lat":53.485443,"long":-2.333014,"isAirport":false,"crsCode":"ECC","iataAirportCode":null},{"stationName":"Eccles Road","lat":52.470585,"long":0.969656,"isAirport":false,"crsCode":"ECS","iataAirportCode":null},{"stationName":"Eccleston Park","lat":53.430665,"long":-2.780555,"isAirport":false,"crsCode":"ECL","iataAirportCode":null},{"stationName":"Edale","lat":53.36477,"long":-1.817395,"isAirport":false,"crsCode":"EDL","iataAirportCode":null},{"stationName":"Eden Park","lat":51.390762,"long":-0.026587,"isAirport":false,"crsCode":"EDN","iataAirportCode":null},{"stationName":"Edenbridge Station","lat":51.208508,"long":0.060099,"isAirport":false,"crsCode":"EBR","iataAirportCode":null},{"stationName":"Edenbridge Town","lat":51.200287,"long":0.06689,"isAirport":false,"crsCode":"EBT","iataAirportCode":null},{"stationName":"Edge Hill","lat":53.402663,"long":-2.946986,"isAirport":false,"crsCode":"EDG","iataAirportCode":null},{"stationName":"Edinburgh Airport","lat":55.95,"long":-3.3725,"isAirport":true,"crsCode":"EDA","iataAirportCode":"EDI"},{"stationName":"Edinburgh Park","lat":55.927615,"long":-3.307829,"isAirport":false,"crsCode":"EDP","iataAirportCode":null},{"stationName":"Edinburgh Waverley","lat":55.952442,"long":-3.188236,"isAirport":false,"crsCode":"EDB","iataAirportCode":null},{"stationName":"Edmonton Green","lat":51.623802,"long":-0.059665,"isAirport":false,"crsCode":"EDR","iataAirportCode":null},{"stationName":"Effingham Junction","lat":51.291504,"long":-0.419536,"isAirport":false,"crsCode":"EFF","iataAirportCode":null},{"stationName":"Eggesford","lat":50.887848,"long":-3.875235,"isAirport":false,"crsCode":"EGG","iataAirportCode":null},{"stationName":"Egham","lat":51.428925,"long":-0.545701,"isAirport":false,"crsCode":"EGH","iataAirportCode":null},{"stationName":"Egton","lat":54.437679,"long":-0.761896,"isAirport":false,"crsCode":"EGT","iataAirportCode":null},{"stationName":"Elephant & Castle","lat":51.494469,"long":-0.098462,"isAirport":false,"crsCode":"EPH","iataAirportCode":null},{"stationName":"Elgin","lat":57.64299,"long":-3.31163,"isAirport":false,"crsCode":"ELG","iataAirportCode":null},{"stationName":"Ellesmere Port","lat":53.282097,"long":-2.895403,"isAirport":false,"crsCode":"ELP","iataAirportCode":null},{"stationName":"Elmers End","lat":51.398335,"long":-0.049263,"isAirport":false,"crsCode":"ELE","iataAirportCode":null},{"stationName":"Elmstead Woods","lat":51.417435,"long":0.043594,"isAirport":false,"crsCode":"ESD","iataAirportCode":null},{"stationName":"Elmswell","lat":52.238201,"long":0.911625,"isAirport":false,"crsCode":"ESW","iataAirportCode":null},{"stationName":"Elsecar","lat":53.498924,"long":-1.428617,"isAirport":false,"crsCode":"ELR","iataAirportCode":null},{"stationName":"Elsenham","lat":51.92038,"long":0.22779,"isAirport":false,"crsCode":"ESM","iataAirportCode":null},{"stationName":"Elstree & Borehamwood","lat":51.652836,"long":-0.279779,"isAirport":false,"crsCode":"ELS","iataAirportCode":null},{"stationName":"Eltham","lat":51.455101,"long":0.0496,"isAirport":false,"crsCode":"ELW","iataAirportCode":null},{"stationName":"Elton & Orston","lat":52.951843,"long":-0.855362,"isAirport":false,"crsCode":"ELO","iataAirportCode":null},{"stationName":"Ely","lat":52.390846,"long":0.266105,"isAirport":false,"crsCode":"ELY","iataAirportCode":null},{"stationName":"Emerson Park","lat":51.56889,"long":0.220658,"isAirport":false,"crsCode":"EMP","iataAirportCode":null},{"stationName":"Emsworth","lat":50.851326,"long":-0.938784,"isAirport":false,"crsCode":"EMS","iataAirportCode":null},{"stationName":"Energlyn & Churchill Park","lat":51.5838,"long":-3.2287,"isAirport":false,"crsCode":"ECP","iataAirportCode":null},{"stationName":"Enfield Chase","lat":51.652607,"long":-0.090404,"isAirport":false,"crsCode":"ENC","iataAirportCode":null},{"stationName":"Enfield Lock","lat":51.671379,"long":-0.028875,"isAirport":false,"crsCode":"ENL","iataAirportCode":null},{"stationName":"Enfield Town","lat":51.651524,"long":-0.078891,"isAirport":false,"crsCode":"ENF","iataAirportCode":null},{"stationName":"Entwistle","lat":53.655591,"long":-2.413983,"isAirport":false,"crsCode":"ENT","iataAirportCode":null},{"stationName":"Epsom Downs","lat":51.321365,"long":-0.243411,"isAirport":false,"crsCode":"EPD","iataAirportCode":null},{"stationName":"Epsom Station","lat":51.334339,"long":-0.268756,"isAirport":false,"crsCode":"EPS","iataAirportCode":null},{"stationName":"Erdington","lat":52.528435,"long":-1.839297,"isAirport":false,"crsCode":"ERD","iataAirportCode":null},{"stationName":"Eridge","lat":51.089024,"long":0.200452,"isAirport":false,"crsCode":"ERI","iataAirportCode":null},{"stationName":"Erith","lat":51.481621,"long":0.174651,"isAirport":false,"crsCode":"ERH","iataAirportCode":null},{"stationName":"Esher","lat":51.379642,"long":-0.354714,"isAirport":false,"crsCode":"ESH","iataAirportCode":null},{"stationName":"Eskbank","lat":55.88956,"long":-3.07845,"isAirport":false,"crsCode":"EKB","iataAirportCode":null},{"stationName":"Essex Road","lat":51.540302,"long":-0.096552,"isAirport":false,"crsCode":"EXR","iataAirportCode":null},{"stationName":"Etchingham","lat":51.010479,"long":0.441935,"isAirport":false,"crsCode":"ETC","iataAirportCode":null},{"stationName":"Euxton Balshaw Lane","lat":53.670071,"long":-2.675045,"isAirport":false,"crsCode":"EBA","iataAirportCode":null},