[{"stationName":"Abbey Wood","lat":51.490719,"long":0.120343,"crsCode":"ABW"},{"stationName":"Aber","lat":51.575363,"long":-3.23089,"crsCode":"ABE"},{"stationName":"Abercynon","lat":51.64262,"long":-3.329549,"crsCode":"ACY"},{"stationName":"Aberdare","lat":51.715019,"long":-3.44313,"crsCode":"ABA"},{"stationName":"Aberdeen","lat":57.143127,"long":-2.097464,"crsCode":"ABD"},{"stationName":"Aberdour","lat":56.054646,"long":-3.300575,"crsCode":"AUR"},{"stationName":"Aberdovey","lat":52.543934,"long":-4.057118,"crsCode":"AVY"},{"stationName":"Abererch","lat":52.898567,"long":-4.37423,"crsCode":"ABH"},{"stationName":"Abergavenny","lat":51.81665,"long":-3.009679,"crsCode":"AGV"},{"stationName":"Abergele & Pensarn","lat":53.294758,"long":-3.581343,"crsCode":"AGL"},{"stationName":"Aberystwyth","lat":52.414017,"long":-4.081946,"crsCode":"AYW"},{"stationName":"Accrington","lat":53.753193,"long":-2.370016,"crsCode":"ACR"},{"stationName":"Achanalt","lat":57.609921,"long":-4.914243,"crsCode":"AAT"},{"stationName":"Achnasheen","lat":57.579205,"long":-5.072421,"crsCode":"ACN"},{"stationName":"Achnashellach","lat":57.482697,"long":-5.333001,"crsCode":"ACH"},{"stationName":"Acklington","lat":55.307129,"long":-1.651816,"crsCode":"ACK"},{"stationName":"Acle","lat":52.634647,"long":1.543981,"crsCode":"ACL"},{"stationName":"Acocks Green","lat":52.449291,"long":-1.81898,"crsCode":"ACG"},{"stationName":"Acton Bridge","lat":53.265961,"long":-2.602689,"crsCode":"ACB"},{"stationName":"Acton Central","lat":51.508717,"long":-0.263601,"crsCode":"ACC"},{"stationName":"Acton Main Line","lat":51.516865,"long":-0.26762,"crsCode":"AML"},{"stationName":"Adderley Park","lat":52.483505,"long":-1.854184,"crsCode":"ADD"},{"stationName":"Addiewell","lat":55.843449,"long":-3.60655,"crsCode":"ADW"},{"stationName":"Addlestone","lat":51.372414,"long":-0.48571,"crsCode":"ASN"},{"stationName":"Adisham","lat":51.241352,"long":1.199277,"crsCode":"ADM"},{"stationName":"Adlington (Cheshire)","lat":53.319542,"long":-2.133571,"crsCode":"ADC"},{"stationName":"Adlington (Lancashire)","lat":53.612926,"long":-2.603084,"crsCode":"ADL"},{"stationName":"Adwick","lat":53.572994,"long":-1.181465,"crsCode":"AWK"},{"stationName":"Aigburth","lat":53.364614,"long":-2.927041,"crsCode":"AIG"},{"stationName":"Ainsdale","lat":53.601818,"long":-3.042691,"crsCode":"ANS"},{"stationName":"Aintree","lat":53.473995,"long":-2.956687,"crsCode":"AIN"},{"stationName":"Airbles","lat":55.782504,"long":-3.994447,"crsCode":"AIR"},{"stationName":"Airdrie","lat":55.864029,"long":-3.982952,"crsCode":"ADR"},{"stationName":"Albany Park","lat":51.435745,"long":0.126427,"crsCode":"AYP"},{"stationName":"Albrighton","lat":52.637917,"long":-2.268913,"crsCode":"ALB"},{"stationName":"Alderley Edge","lat":53.303762,"long":-2.236812,"crsCode":"ALD"},{"stationName":"Aldermaston","lat":51.402047,"long":-1.136972,"crsCode":"AMT"},{"stationName":"Aldershot","lat":51.246151,"long":-0.760657,"crsCode":"AHT"},{"stationName":"Aldrington","lat":50.836601,"long":-0.182151,"crsCode":"AGT"},{"stationName":"Alexandra Palace","lat":51.598225,"long":-0.120129,"crsCode":"AAP"},{"stationName":"Alexandra Parade","lat":55.863724,"long":-4.211465,"crsCode":"AXP"},{"stationName":"Alexandria","lat":55.98513,"long":-4.577534,"crsCode":"ALX"},{"stationName":"Alfreton","lat":53.100414,"long":-1.369689,"crsCode":"ALF"},{"stationName":"Allens West","lat":54.524128,"long":-1.363418,"crsCode":"ALW"},{"stationName":"Alloa","lat":56.1179,"long":-3.7872,"crsCode":"ALO"},{"stationName":"Alness","lat":57.694477,"long":-4.249743,"crsCode":"ASS"},{"stationName":"Alnmouth","lat":55.392456,"long":-1.636858,"crsCode":"ALM"},{"stationName":"Alresford","lat":51.853828,"long":0.997114,"crsCode":"ALR"},{"stationName":"Alsager","lat":53.093054,"long":-2.29861,"crsCode":"ASG"},{"stationName":"Althorne","lat":51.647526,"long":0.753603,"crsCode":"ALN"},{"stationName":"Althorpe","lat":53.585262,"long":-0.732558,"crsCode":"ALP"},{"stationName":"Altnabreac","lat":58.388439,"long":-3.705279,"crsCode":"ABC"},{"stationName":"Alton","lat":51.151947,"long":-0.967658,"crsCode":"AON"},{"stationName":"Altrincham","lat":53.3874,"long":-2.347212,"crsCode":"ALT"},{"stationName":"Alvechurch","lat":52.346607,"long":-1.967854,"crsCode":"ALV"},{"stationName":"Ambergate","lat":53.060501,"long":-1.4807,"crsCode":"AMB"},{"stationName":"Amberley","lat":50.896507,"long":-0.542446,"crsCode":"AMY"},{"stationName":"Amersham","lat":51.67439,"long":-0.60613,"crsCode":"AMR"},{"stationName":"Ammanford","lat":51.795933,"long":-3.996783,"crsCode":"AMF"},{"stationName":"Ancaster","lat":52.987888,"long":-0.535596,"crsCode":"ANC"},{"stationName":"Anderston","lat":55.859924,"long":-4.271969,"crsCode":"AND"},{"stationName":"Andover","lat":51.212048,"long":-1.493167,"crsCode":"ADV"},{"stationName":"Anerley","lat":51.41163,"long":-0.064348,"crsCode":"ANZ"},{"stationName":"Angmering","lat":50.816704,"long":-0.489559,"crsCode":"ANG"},{"stationName":"Annan","lat":54.98386,"long":-3.262603,"crsCode":"ANN"},{"stationName":"Anniesland","lat":55.889553,"long":-4.321684,"crsCode":"ANL"},{"stationName":"Ansdell & Fairhaven","lat":53.741558,"long":-2.993077,"crsCode":"AFV"},{"stationName":"Apperley Bridge","lat":53.84138,"long":-1.703065,"crsCode":"APY"},{"stationName":"Appleby","lat":54.58032,"long":-2.486692,"crsCode":"APP"},{"stationName":"Appledore (Kent)","lat":51.032623,"long":0.816826,"crsCode":"APD"},{"stationName":"Appleford","lat":51.639562,"long":-1.242375,"crsCode":"APF"},{"stationName":"Appley Bridge","lat":53.579029,"long":-2.718906,"crsCode":"APB"},{"stationName":"Apsley","lat":51.732712,"long":-0.463568,"crsCode":"APS"},{"stationName":"Arbroath","lat":56.559628,"long":-2.588928,"crsCode":"ARB"},{"stationName":"Ardgay","lat":57.881119,"long":-4.362604,"crsCode":"ARD"},{"stationName":"Ardlui","lat":56.302025,"long":-4.721712,"crsCode":"AUI"},{"stationName":"Ardrossan Harbour","lat":55.640854,"long":-4.823461,"crsCode":"ADS"},{"stationName":"Ardrossan South Beach","lat":55.640495,"long":-4.799593,"crsCode":"ASB"},{"stationName":"Ardrossan Town","lat":55.639313,"long":-4.812212,"crsCode":"ADN"},{"stationName":"Ardwick","lat":53.47134,"long":-2.213893,"crsCode":"ADK"},{"stationName":"Argyle Street","lat":55.855938,"long":-4.244574,"crsCode":"AGS"},{"stationName":"Arisaig","lat":56.912617,"long":-5.839141,"crsCode":"ARG"},{"stationName":"Arlesey","lat":52.025938,"long":-0.266178,"crsCode":"ARL"},{"stationName":"Armadale","lat":55.88639,"long":-3.68504,"crsCode":"ARM"},{"stationName":"Armathwaite","lat":54.809611,"long":-2.77209,"crsCode":"AWT"},{"stationName":"Arnside","lat":54.202114,"long":-2.827783,"crsCode":"ARN"},{"stationName":"Arram","lat":53.884567,"long":-0.426833,"crsCode":"ARR"},{"stationName":"Arrochar & Tarbet","lat":56.204021,"long":-4.722822,"crsCode":"ART"},{"stationName":"Arundel","lat":50.848003,"long":-0.546796,"crsCode":"ARU"},{"stationName":"Ascot","lat":51.406185,"long":-0.675827,"crsCode":"ACT"},{"stationName":"Ascott-Under-Wychwood","lat":51.867376,"long":-1.564136,"crsCode":"AUW"},{"stationName":"Ash","lat":51.249222,"long":-0.711856,"crsCode":"ASH"},{"stationName":"Ash Vale","lat":51.272709,"long":-0.721247,"crsCode":"AHV"},{"stationName":"Ashburys","lat":53.471761,"long":-2.194991,"crsCode":"ABY"},{"stationName":"Ashchurch for Tewkesbury","lat":51.997158,"long":-2.10921,"crsCode":"ASC"},{"stationName":"Ashfield","lat":55.889214,"long":-4.2433,"crsCode":"ASF"},{"stationName":"Ashford International","lat":51.14335294,"long":0.875167251,"crsCode":"AFK"},{"stationName":"Ashford Surrey","lat":51.436047,"long":-0.469229,"crsCode":"AFS"},{"stationName":"Ashley","lat":53.355984,"long":-2.341029,"crsCode":"ASY"},{"stationName":"Ashtead","lat":51.317822,"long":-0.308126,"crsCode":"AHD"},{"stationName":"Ashton-Under-Lyne","lat":53.491264,"long":-2.093415,"crsCode":"AHN"},{"stationName":"Ashurst Kent","lat":51.128601,"long":0.152298,"crsCode":"AHS"},{"stationName":"Ashurst New Forest","lat":50.888865,"long":-1.525097,"crsCode":"ANF"},{"stationName":"Ashwell & Morden","lat":52.030586,"long":-0.10934,"crsCode":"AWM"},{"stationName":"Askam","lat":54.189049,"long":-3.204545,"crsCode":"ASK"},{"stationName":"Aslockton","lat":52.951351,"long":-0.898541,"crsCode":"ALK"},{"stationName":"Aspatria","lat":54.759338,"long":-3.331752,"crsCode":"ASP"},{"stationName":"Aspley Guise","lat":52.020725,"long":-0.631519,"crsCode":"APG"},{"stationName":"Aston","lat":52.505104,"long":-1.871788,"crsCode":"AST"},{"stationName":"Atherstone","lat":52.578949,"long":-1.552808,"crsCode":"ATH"},{"stationName":"Atherton","lat":53.528817,"long":-2.478683,"crsCode":"ATN"},{"stationName":"Attadale","lat":57.394871,"long":-5.456549,"crsCode":"ATT"},{"stationName":"Attenborough","lat":52.906322,"long":-1.231262,"crsCode":"ATB"},{"stationName":"Attleborough","lat":52.514214,"long":1.022719,"crsCode":"ATL"},{"stationName":"Auchinleck","lat":55.47031,"long":-4.295389,"crsCode":"AUK"},{"stationName":"Audley End","lat":52.004398,"long":0.20719,"crsCode":"AUD"},{"stationName":"Aughton Park","lat":53.55447,"long":-2.895095,"crsCode":"AUG"},{"stationName":"Aviemore","lat":57.18914,"long":-3.828348,"crsCode":"AVM"},{"stationName":"Avoncliff","lat":51.339596,"long":-2.281342,"crsCode":"AVF"},{"stationName":"Avonmouth","lat":51.500194,"long":-2.699332,"crsCode":"AVN"},{"stationName":"Axminster","lat":50.778976,"long":-3.005613,"crsCode":"AXM"},{"stationName":"Aylesbury","lat":51.813868,"long":-0.815048,"crsCode":"AYS"},{"stationName":"Aylesbury Vale Parkway","lat":51.8327,"long":-0.8623,"crsCode":"AVP"},{"stationName":"Aylesford","lat":51.301384,"long":0.465964,"crsCode":"AYL"},{"stationName":"Aylesham","lat":51.227185,"long":1.209682,"crsCode":"AYH"},{"stationName":"Ayr","lat":55.458248,"long":-4.626878,"crsCode":"AYR"},{"stationName":"Bache","lat":53.209312,"long":-2.892386,"crsCode":"BAC"},{"stationName":"Baglan","lat":51.61549,"long":-3.811182,"crsCode":"BAJ"},{"stationName":"Bagshot","lat":51.364964,"long":-0.688501,"crsCode":"BAG"},{"stationName":"Baildon","lat":53.849682,"long":-1.753717,"crsCode":"BLD"},{"stationName":"Baillieston","lat":55.844761,"long":-4.11454,"crsCode":"BIO"},{"stationName":"Balcombe","lat":51.05624,"long":-0.137881,"crsCode":"BAB"},{"stationName":"Baldock","lat":51.993156,"long":-0.188106,"crsCode":"BDK"},{"stationName":"Balham","lat":51.443169,"long":-0.152403,"crsCode":"BAL"},{"stationName":"Balloch Central","lat":56.002983,"long":-4.583539,"crsCode":"BHC"},{"stationName":"Balmossie","lat":56.475548,"long":-2.83764,"crsCode":"BSI"},{"stationName":"Bamber Bridge","lat":53.726772,"long":-2.660793,"crsCode":"BMB"},{"stationName":"Bamford","lat":53.338985,"long":-1.689078,"crsCode":"BAM"},{"stationName":"Banavie","lat":56.84338,"long":-5.095477,"crsCode":"BNV"},{"stationName":"Banbury","lat":52.060925,"long":-1.327541,"crsCode":"BAN"},{"stationName":"Bangor (Gwynedd)","lat":53.222902,"long":-4.135505,"crsCode":"BNG"},{"stationName":"Bank Hall","lat":53.437357,"long":-2.987509,"crsCode":"BAH"},{"stationName":"Banstead","lat":51.329922,"long":-0.214384,"crsCode":"BAD"},{"stationName":"Barassie","lat":55.5611,"long":-4.651181,"crsCode":"BSS"},{"stationName":"Bardon Mill","lat":54.974636,"long":-2.349922,"crsCode":"BLL"},{"stationName":"Bare Lane","lat":54.074473,"long":-2.835331,"crsCode":"BAR"},{"stationName":"Bargeddie","lat":55.851776,"long":-4.071789,"crsCode":"BGI"},{"stationName":"Bargoed","lat":51.692268,"long":-3.229717,"crsCode":"BGD"},{"stationName":"Barking","lat":51.539982,"long":0.080804,"crsCode":"BKG"},{"stationName":"Barking Riverside","lat":51.519108,"long":0.114764,"crsCode":"BGV"},{"stationName":"Barlaston","lat":52.942856,"long":-2.168118,"crsCode":"BRT"},{"stationName":"Barming","lat":51.284904,"long":0.479428,"crsCode":"BMG"},{"stationName":"Barmouth","lat":52.72287,"long":-4.056641,"crsCode":"BRM"},{"stationName":"Barnehurst","lat":51.464798,"long":0.160885,"crsCode":"BNH"},{"stationName":"Barnes Bridge","lat":51.471676,"long":-0.252051,"crsCode":"BNI"},{"stationName":"Barnes","lat":51.467014,"long":-0.240711,"crsCode":"BNS"},{"stationName":"Barnetby","lat":53.574219,"long":-0.409679,"crsCode":"BTB"},{"stationName":"Barnham","lat":50.831135,"long":-0.639627,"crsCode":"BAA"},{"stationName":"Barnhill","lat":55.877895,"long":-4.223463,"crsCode":"BNL"},{"stationName":"Barnsley","lat":53.553978,"long":-1.477688,"crsCode":"BNY"},{"stationName":"Barnstaple","lat":51.073532,"long":-4.064032,"crsCode":"BNP"},{"stationName":"Barnt Green","lat":52.361328,"long":-1.994098,"crsCode":"BTG"},{"stationName":"Barrhead","lat":55.804535,"long":-4.396411,"crsCode":"BRR"},{"stationName":"Barrhill","lat":55.097031,"long":-4.781834,"crsCode":"BRL"},{"stationName":"Barrow Haven","lat":53.697128,"long":-0.391427,"crsCode":"BAV"},{"stationName":"Barrow Upon Soar","lat":52.750244,"long":-1.14956,"crsCode":"BWS"},{"stationName":"Barrow-In-Furness","lat":54.118879,"long":-3.22614,"crsCode":"BIF"},{"stationName":"Barry Docks","lat":51.402393,"long":-3.260749,"crsCode":"BYD"},{"stationName":"Barry Island","lat":51.392361,"long":-3.273405,"crsCode":"BYI"},{"stationName":"Barry Links","lat":56.493206,"long":-2.745444,"crsCode":"BYL"},{"stationName":"Barry","lat":51.396729,"long":-3.285023,"crsCode":"BRY"},{"stationName":"Barton-On-Humber","lat":53.688824,"long":-0.443233,"crsCode":"BAU"},{"stationName":"Basildon","lat":51.568672,"long":0.457309,"crsCode":"BSO"},{"stationName":"Basingstoke","lat":51.26804,"long":-1.086896,"crsCode":"BSK"},{"stationName":"Bat & Ball","lat":51.289703,"long":0.194258,"crsCode":"BBL"},{"stationName":"Bath Spa","lat":51.378059,"long":-2.356302,"crsCode":"BTH"},{"stationName":"Bathgate","lat":55.898678,"long":-3.644019,"crsCode":"BHG"},{"stationName":"Batley","lat":53.709129,"long":-1.622734,"crsCode":"BTL"},{"stationName":"Battersby","lat":54.457687,"long":-1.092945,"crsCode":"BTT"},{"stationName":"Battersea Park","lat":51.477272,"long":-0.148151,"crsCode":"BAK"},{"stationName":"Battle","lat":50.91312,"long":0.495169,"crsCode":"BAT"},{"stationName":"Battlesbridge","lat":51.624805,"long":0.565826,"crsCode":"BLB"},{"stationName":"Bayford","lat":51.758808,"long":-0.096074,"crsCode":"BAY"},{"stationName":"Beaconsfield","lat":51.611141,"long":-0.643644,"crsCode":"BCF"},{"stationName":"Bearley","lat":52.244252,"long":-1.750259,"crsCode":"BER"},{"stationName":"Bearsden","lat":55.917202,"long":-4.332945,"crsCode":"BRN"},{"stationName":"Bearsted","lat":51.275589,"long":0.57786,"crsCode":"BSD"},{"stationName":"Beasdale","lat":56.899624,"long":-5.763864,"crsCode":"BSL"},{"stationName":"Beaulieu Road","lat":50.854206,"long":-1.505586,"crsCode":"BEU"},{"stationName":"Beauly","lat":57.478,"long":-4.4698,"crsCode":"BEL"},{"stationName":"Bebington","lat":53.357651,"long":-3.003659,"crsCode":"BEB"},{"stationName":"Beccles","lat":52.458481,"long":1.569547,"crsCode":"BCC"},{"stationName":"Beckenham Hill","lat":51.424767,"long":-0.016497,"crsCode":"BEC"},{"stationName":"Beckenham Junction","lat":51.411446,"long":-0.027144,"crsCode":"BKJ"},{"stationName":"Bedford St Johns","lat":52.129299,"long":-0.467348,"crsCode":"BSJ"},{"stationName":"Bedford","lat":52.136175,"long":-0.47945,"crsCode":"BDM"},{"stationName":"Bedhampton","lat":50.853638,"long":-0.996989,"crsCode":"BDH"},{"stationName":"Bedminster","lat":51.440037,"long":-2.594184,"crsCode":"BMT"},{"stationName":"Bedworth","lat":52.479133,"long":-1.46749,"crsCode":"BEH"},{"stationName":"Bedwyn","lat":51.379715,"long":-1.599077,"crsCode":"BDW"},{"stationName":"Beeston","lat":52.920551,"long":-1.207211,"crsCode":"BEE"},{"stationName":"Bekesbourne","lat":51.261051,"long":1.136125,"crsCode":"BKS"},{"stationName":"Belfast Central","lat":54.5953,"long":-5.9172,"crsCode":"BFC"},{"stationName":"Belle Vue","lat":53.462181,"long":-2.180809,"crsCode":"BLV"},{"stationName":"Bellgrove","lat":55.857182,"long":-4.22547,"crsCode":"BLG"},{"stationName":"Bellingham","lat":51.433826,"long":-0.020421,"crsCode":"BGM"},{"stationName":"Bellshill","lat":55.816605,"long":-4.025222,"crsCode":"BLH"},{"stationName":"Belmont","lat":51.344086,"long":-0.199471,"crsCode":"BLM"},{"stationName":"Belper","lat":53.024555,"long":-1.482622,"crsCode":"BLP"},{"stationName":"Beltring","lat":51.204651,"long":0.403518,"crsCode":"BEG"},{"stationName":"Belvedere","lat":51.491936,"long":0.152088,"crsCode":"BVD"},{"stationName":"Bempton","lat":54.128296,"long":-0.180389,"crsCode":"BEM"},{"stationName":"Ben Rhydding","lat":53.926167,"long":-1.797429,"crsCode":"BEY"},{"stationName":"Benfleet","lat":51.543964,"long":0.561273,"crsCode":"BEF"},{"stationName":"Bentham","lat":54.115791,"long":-2.510918,"crsCode":"BEN"},{"stationName":"Bentley","lat":51.180695,"long":-0.868287,"crsCode":"BTY"},{"stationName":"Bentley (South Yorkshire)","lat":53.542865,"long":-1.148788,"crsCode":"BYK"},{"stationName":"Bere Alston","lat":50.485535,"long":-4.200418,"crsCode":"BAS"},{"stationName":"Bere Ferrers","lat":50.450798,"long":-4.181901,"crsCode":"BFE"},{"stationName":"Berkhamsted","lat":51.763638,"long":-0.562498,"crsCode":"BKM"},{"stationName":"Berkswell","lat":52.395851,"long":-1.642845,"crsCode":"BKW"},{"stationName":"Bermuda Park","lat":52.5029,"long":-1.4726,"crsCode":"BEP"},{"stationName":"Berney Arms","lat":52.589745,"long":1.63043,"crsCode":"BYA"},{"stationName":"Berry Brow","lat":53.622368,"long":-1.797371,"crsCode":"BBW"},{"stationName":"Berrylands","lat":51.39838,"long":-0.282157,"crsCode":"BRS"},{"stationName":"Berwick (Sussex)","lat":50.840569,"long":0.164587,"crsCode":"BRK"},{"stationName":"Berwick-Upon-Tweed","lat":55.774872,"long":-2.01112,"crsCode":"BWK"},{"stationName":"Bescar Lane","lat":53.623531,"long":-2.914703,"crsCode":"BES"},{"stationName":"Bescot Stadium","lat":52.562702,"long":-1.991116,"crsCode":"BSC"},{"stationName":"Betchworth","lat":51.247993,"long":-0.26771,"crsCode":"BTO"},{"stationName":"Bethnal Green","lat":51.524406,"long":-0.059747,"crsCode":"BET"},{"stationName":"Betws-Y-Coed","lat":53.092056,"long":-3.80091,"crsCode":"BYC"},{"stationName":"Beverley","lat":53.842281,"long":-0.423855,"crsCode":"BEV"},{"stationName":"Bexhill","lat":50.840679,"long":0.475678,"crsCode":"BEX"},{"stationName":"Bexley","lat":51.440742,"long":0.148248,"crsCode":"BXY"},{"stationName":"Bexleyheath","lat":51.463493,"long":0.133471,"crsCode":"BXH"},{"stationName":"Bicester North","lat":51.903401,"long":-1.150517,"crsCode":"BCS"},{"stationName":"Bicester Village","lat":51.893429,"long":-1.148393,"crsCode":"BIT"},{"stationName":"Bickley","lat":51.40033,"long":0.044272,"crsCode":"BKL"},{"stationName":"Bidston","lat":53.40913,"long":-3.078589,"crsCode":"BID"},{"stationName":"Biggleswade","lat":52.085068,"long":-0.260294,"crsCode":"BIW"},{"stationName":"Bilbrook","lat":52.623695,"long":-2.186101,"crsCode":"BBK"},{"stationName":"Billericay","lat":51.628834,"long":0.418656,"crsCode":"BIC"},{"stationName":"Billingham","lat":54.606327,"long":-1.278525,"crsCode":"BIL"},{"stationName":"Billingshurst","lat":51.014938,"long":-0.450348,"crsCode":"BIG"},{"stationName":"Bingham","lat":52.954536,"long":-0.952044,"crsCode":"BIN"},{"stationName":"Bingley","lat":53.84803,"long":-1.837327,"crsCode":"BIY"},{"stationName":"Birchgrove","lat":51.521687,"long":-3.203502,"crsCode":"BCG"},{"stationName":"Birchington-On-Sea","lat":51.377956,"long":1.300781,"crsCode":"BCH"},{"stationName":"Birchwood","lat":53.41193,"long":-2.52802,"crsCode":"BWD"},{"stationName":"Birkbeck","lat":51.403847,"long":-0.056218,"crsCode":"BIK"},{"stationName":"Birkdale","lat":53.633514,"long":-3.014742,"crsCode":"BDL"},{"stationName":"Birkenhead Central","lat":53.388244,"long":-3.020897,"crsCode":"BKC"},{"stationName":"Birkenhead Hamilton Square","lat":53.39469,"long":-3.01365,"crsCode":"BKQ"},{"stationName":"Birkenhead North","lat":53.404819,"long":-3.057425,"crsCode":"BKN"},{"stationName":"Birkenhead Park","lat":53.397417,"long":-3.03927,"crsCode":"BKP"},{"stationName":"Birmingham International","lat":52.450673,"long":-1.725149,"crsCode":"BHI"},{"stationName":"Birmingham Moor Street","lat":52.479053,"long":-1.892483,"crsCode":"BMO"},{"stationName":"Birmingham New Street","lat":52.478153,"long":-1.898375,"crsCode":"BHM"},{"stationName":"Birmingham Snow Hill","lat":52.483555,"long":-1.899833,"crsCode":"BSW"},{"stationName":"Bishop Auckland","lat":54.657482,"long":-1.677545,"crsCode":"BIA"},{"stationName":"Bishopbriggs","lat":55.903927,"long":-4.224958,"crsCode":"BBG"},{"stationName":"Bishops Stortford","lat":51.866692,"long":0.16557,"crsCode":"BIS"},{"stationName":"Bishopstone (Hill Rise)","lat":50.780014,"long":0.082352,"crsCode":"BIP"},{"stationName":"Bishopton","lat":55.902206,"long":-4.501637,"crsCode":"BPT"},{"stationName":"Bitterne","lat":50.918343,"long":-1.378279,"crsCode":"BTE"},{"stationName":"Blackburn","lat":53.746513,"long":-2.479135,"crsCode":"BBN"},{"stationName":"Blackheath","lat":51.465706,"long":0.008317,"crsCode":"BKH"},{"stationName":"Blackhorse Road","lat":51.586143,"long":-0.04123,"crsCode":"BHO"},{"stationName":"Blackpool North","lat":53.822772,"long":-3.049908,"crsCode":"BPN"},{"stationName":"Blackpool Pleasure Beach","lat":53.788154,"long":-3.053856,"crsCode":"BPB"},{"stationName":"Blackpool South","lat":53.798611,"long":-3.049081,"crsCode":"BPS"},{"stationName":"Blackridge","lat":55.88368,"long":-3.75047,"crsCode":"BKR"},{"stationName":"Blackrod","lat":53.591522,"long":-2.56954,"crsCode":"BLK"},{"stationName":"Blackwater","lat":51.33176,"long":-0.777023,"crsCode":"BAW"},{"stationName":"Blaenau Ffestiniog","lat":52.996284,"long":-3.944449,"crsCode":"BFF"},{"stationName":"Blair Atholl","lat":56.765614,"long":-3.85025,"crsCode":"BLA"},{"stationName":"Blairhill","lat":55.866653,"long":-4.04221,"crsCode":"BAI"},{"stationName":"Blake Street","lat":52.605054,"long":-1.844888,"crsCode":"BKT"},{"stationName":"Blakedown","lat":52.406147,"long":-2.176365,"crsCode":"BKD"},{"stationName":"Blantyre","lat":55.7976,"long":-4.086466,"crsCode":"BLT"},{"stationName":"Blaydon","lat":54.965813,"long":-1.712578,"crsCode":"BLO"},{"stationName":"Bleasby","lat":53.041649,"long":-0.942469,"crsCode":"BSB"},{"stationName":"Bletchley","lat":51.995339,"long":-0.736368,"crsCode":"BLY"},{"stationName":"Bloxwich North","lat":52.625637,"long":-2.019173,"crsCode":"BWN"},{"stationName":"Bloxwich","lat":52.61853,"long":-2.011783,"crsCode":"BLX"},{"stationName":"Blundellsands & Crosby","lat":53.487675,"long":-3.039889,"crsCode":"BLN"},{"stationName":"Blythe Bridge","lat":52.968124,"long":-2.066966,"crsCode":"BYB"},{"stationName":"Bodmin Parkway","lat":50.445822,"long":-4.663026,"crsCode":"BOD"},{"stationName":"Bodorgan","lat":53.204292,"long":-4.418067,"crsCode":"BOR"},{"stationName":"Bognor Regis","lat":50.786594,"long":-0.676384,"crsCode":"BOG"},{"stationName":"Bogston","lat":55.937267,"long":-4.713676,"crsCode":"BGS"},{"stationName":"Bond Street","lat":51.514,"long":-0.15,"crsCode":"BDS"},{"stationName":"Bolton","lat":53.573983,"long":-2.425661,"crsCode":"BON"},{"stationName":"Bolton-On-Dearne","lat":53.518986,"long":-1.312217,"crsCode":"BTD"},{"stationName":"Bookham","lat":51.288334,"long":-0.385224,"crsCode":"BKA"},{"stationName":"Bootle (Cumbria)","lat":54.290249,"long":-3.394818,"crsCode":"BOC"},{"stationName":"Bootle New Strand","lat":53.453357,"long":-2.994676,"crsCode":"BNW"},{"stationName":"Bootle Oriel Road","lat":53.446559,"long":-2.995791,"crsCode":"BOT"},{"stationName":"Bordesley","lat":52.471844,"long":-1.877771,"crsCode":"BBS"},{"stationName":"Borough Green & Wrotham","lat":51.29295,"long":0.306296,"crsCode":"BRG"},{"stationName":"Borth","lat":52.491001,"long":-4.050236,"crsCode":"BRH"},{"stationName":"Bosham","lat":50.843262,"long":-0.846655,"crsCode":"BOH"},{"stationName":"Boston","lat":52.978802,"long":-0.030949,"crsCode":"BSN"},{"stationName":"Botley","lat":50.916748,"long":-1.258809,"crsCode":"BOE"},{"stationName":"Bottesford","lat":52.944962,"long":-0.796012,"crsCode":"BTF"},{"stationName":"Bourne End","lat":51.576538,"long":-0.711287,"crsCode":"BNE"},{"stationName":"Bournemouth","lat":50.727478,"long":-1.863955,"crsCode":"BMH"},{"stationName":"Bournville","lat":52.426937,"long":-1.926434,"crsCode":"BRV"},{"stationName":"Bow Brickhill","lat":52.003475,"long":-0.696154,"crsCode":"BWB"},{"stationName":"Bow Street","lat":52.439914,"long":-4.03036,"crsCode":"BOW"},{"stationName":"Bowes Park","lat":51.607216,"long":-0.119761,"crsCode":"BOP"},{"stationName":"Bowling","lat":55.931129,"long":-4.493879,"crsCode":"BWG"},{"stationName":"Box Hill & Westhumble","lat":51.253376,"long":-0.329128,"crsCode":"BXW"},{"stationName":"Bracknell","lat":51.413319,"long":-0.751833,"crsCode":"BCE"},{"stationName":"Bradford Forster Square","lat":53.79575,"long":-1.752505,"crsCode":"BDQ"},{"stationName":"Bradford Interchange","lat":53.791196,"long":-1.749701,"crsCode":"BDI"},{"stationName":"Bradford-On-Avon","lat":51.345058,"long":-2.252669,"crsCode":"BOA"},{"stationName":"Brading","lat":50.678509,"long":-1.13801,"crsCode":"BDN"},{"stationName":"Braintree","lat":51.874989,"long":0.558261,"crsCode":"BTR"},{"stationName":"Braintree Freeport","lat":51.869316,"long":0.568258,"crsCode":"BTP"},{"stationName":"Bramhall","lat":53.359959,"long":-2.162249,"crsCode":"BML"},{"stationName":"Bramley (Hants)","lat":51.32988,"long":-1.061265,"crsCode":"BMY"},{"stationName":"Bramley (W Yorks)","lat":53.803532,"long":-1.630985,"crsCode":"BLE"},{"stationName":"Brampton (Cumbria)","lat":54.932655,"long":-2.703814,"crsCode":"BMP"},{"stationName":"Brampton (Suffolk)","lat":52.395397,"long":1.543871,"crsCode":"BRP"},{"stationName":"Branchton","lat":55.940647,"long":-4.803598,"crsCode":"BCN"},{"stationName":"Brandon","lat":52.454479,"long":0.624116,"crsCode":"BND"},{"stationName":"Branksome","lat":50.727528,"long":-1.919211,"crsCode":"BSM"},{"stationName":"Braystones","lat":54.43956,"long":-3.543406,"crsCode":"BYS"},{"stationName":"Bredbury","lat":53.422939,"long":-2.109823,"crsCode":"BDY"},{"stationName":"Breich","lat":55.827351,"long":-3.668147,"crsCode":"BRC"},{"stationName":"Brentford","lat":51.487804,"long":-0.309048,"crsCode":"BFD"},{"stationName":"Brent Cross West","lat":51.5687,"long":-0.2269,"crsCode":"BCZ"},{"stationName":"Brentwood","lat":51.61322,"long":0.30083,"crsCode":"BRE"},{"stationName":"Bricket Wood","lat":51.705223,"long":-0.358846,"crsCode":"BWO"},{"stationName":"Bridge of Allan","lat":56.157429,"long":-3.956166,"crsCode":"BEA"},{"stationName":"Bridge of Orchy","lat":56.515926,"long":-4.763048,"crsCode":"BRO"},{"stationName":"Bridgend","lat":51.506481,"long":-3.576296,"crsCode":"BGN"},{"stationName":"Bridgeton","lat":55.849968,"long":-4.226668,"crsCode":"BDG"},{"stationName":"Bridgwater","lat":51.128025,"long":-2.99031,"crsCode":"BWT"},{"stationName":"Bridlington","lat":54.084545,"long":-0.200659,"crsCode":"BDT"},{"stationName":"Brierfield","lat":53.824535,"long":-2.236959,"crsCode":"BRF"},{"stationName":"Brigg","lat":53.549137,"long":-0.486094,"crsCode":"BGG"},{"stationName":"Brighouse","lat":53.698734,"long":-1.781855,"crsCode":"BGH"},{"stationName":"Brighton","lat":50.829659,"long":-0.141234,"crsCode":"BTN"},{"stationName":"Brimsdown","lat":51.655224,"long":-0.031022,"crsCode":"BMD"},{"stationName":"Brinnington","lat":53.431881,"long":-2.134097,"crsCode":"BNT"},{"stationName":"Bristol Parkway","lat":51.514061,"long":-2.53461,"crsCode":"BPW"},{"stationName":"Bristol Temple Meads","lat":51.449093,"long":-2.581349,"crsCode":"BRI"},{"stationName":"Brithdir","lat":51.710266,"long":-3.228765,"crsCode":"BHD"},{"stationName":"Briton Ferry","lat":51.637852,"long":-3.8193,"crsCode":"BNF"},{"stationName":"Brixton","lat":51.463245,"long":-0.114164,"crsCode":"BRX"},{"stationName":"Broad Green","lat":53.40654,"long":-2.893267,"crsCode":"BGE"},{"stationName":"Broadbottom","lat":53.440968,"long":-2.01653,"crsCode":"BDB"},{"stationName":"Broadstairs","lat":51.360653,"long":1.43317,"crsCode":"BSR"},{"stationName":"Brockenhurst","lat":50.816708,"long":-1.574112,"crsCode":"BCU"},{"stationName":"Brockholes","lat":53.597149,"long":-1.770299,"crsCode":"BHS"},{"stationName":"Brockley","lat":51.464684,"long":-0.037797,"crsCode":"BCY"},{"stationName":"Brockley Whins","lat":54.958672,"long":-1.462749,"crsCode":"BNR"},{"stationName":"Bromborough Rake","lat":53.329899,"long":-2.989644,"crsCode":"BMR"},{"stationName":"Bromborough","lat":53.322146,"long":-2.987058,"crsCode":"BOM"},{"stationName":"Bromley Cross","lat":53.613743,"long":-2.409614,"crsCode":"BMC"},{"stationName":"Bromley North","lat":51.408894,"long":0.017325,"crsCode":"BMN"},{"stationName":"Bromley South","lat":51.399887,"long":0.018374,"crsCode":"BMS"},{"stationName":"Bromsgrove","lat":52.322662,"long":-2.048379,"crsCode":"BMV"},{"stationName":"Brondesbury Park","lat":51.540896,"long":-0.209955,"crsCode":"BSP"},{"stationName":"Brondesbury","lat":51.545574,"long":-0.203063,"crsCode":"BSY"},{"stationName":"Brookmans Park","lat":51.720955,"long":-0.204811,"crsCode":"BPK"},{"stationName":"Brookwood","lat":51.303215,"long":-0.635753,"crsCode":"BKO"},{"stationName":"Broome","lat":52.422745,"long":-2.88524,"crsCode":"BME"},{"stationName":"Broomfleet","lat":53.740131,"long":-0.673328,"crsCode":"BMF"},{"stationName":"Brora","lat":58.012657,"long":-3.853251,"crsCode":"BRA"},{"stationName":"Brough","lat":53.726452,"long":-0.578255,"crsCode":"BUH"},{"stationName":"Broughty Ferry","lat":56.467213,"long":-2.873153,"crsCode":"BYF"},{"stationName":"Broxbourne","lat":51.745712,"long":-0.011157,"crsCode":"BXB"},{"stationName":"Bruce Grove","lat":51.592918,"long":-0.06982,"crsCode":"BCV"},{"stationName":"Brundall Gardens","lat":52.623035,"long":1.418896,"crsCode":"BGA"},{"stationName":"Brundall","lat":52.619747,"long":1.439316,"crsCode":"BDA"},{"stationName":"Brunstane","lat":55.94143,"long":-3.10064,"crsCode":"BSU"},{"stationName":"Brunswick","lat":53.382153,"long":-2.975665,"crsCode":"BRW"},{"stationName":"Bruton","lat":51.111584,"long":-2.447103,"crsCode":"BRU"},{"stationName":"Bryn","lat":53.499893,"long":-2.647233,"crsCode":"BYN"},{"stationName":"Buckenham","lat":52.59816,"long":1.47013,"crsCode":"BUC"},{"stationName":"Buckley","lat":53.163021,"long":-3.055948,"crsCode":"BCK"},{"stationName":"Bucknell","lat":52.357525,"long":-2.948551,"crsCode":"BUK"},{"stationName":"Buckshaw Parkway","lat":53.67283,"long":-2.66447,"crsCode":"BSV"},{"stationName":"Bugle","lat":50.399979,"long":-4.791736,"crsCode":"BGL"},{"stationName":"Builth Road","lat":52.169289,"long":-3.427068,"crsCode":"BHR"},{"stationName":"Bulwell","lat":52.999625,"long":-1.196115,"crsCode":"BLW"},{"stationName":"Bures","lat":51.97094,"long":0.769021,"crsCode":"BUE"},{"stationName":"Burgess Hill","lat":50.953552,"long":-0.127749,"crsCode":"BUG"},{"stationName":"Burley Park","lat":53.808743,"long":-1.576277,"crsCode":"BUY"},{"stationName":"Burley-In-Wharfedale","lat":53.908112,"long":-1.753363,"crsCode":"BUW"},{"stationName":"Burnage","lat":53.421205,"long":-2.215896,"crsCode":"BNA"},{"stationName":"Burneside","lat":54.355305,"long":-2.766231,"crsCode":"BUD"},{"stationName":"Burnham","lat":51.523538,"long":-0.647335,"crsCode":"BNM"},{"stationName":"Burnham-On-Crouch","lat":51.633526,"long":0.813459,"crsCode":"BUU"},{"stationName":"Burnley Barracks","lat":53.791237,"long":-2.258014,"crsCode":"BUB"},{"stationName":"Burnley Central","lat":53.793776,"long":-2.244644,"crsCode":"BNC"},{"stationName":"Burnley Manchester Road","lat":53.784962,"long":-2.248883,"crsCode":"BYM"},{"stationName":"Burnside","lat":55.817123,"long":-4.204029,"crsCode":"BUI"},{"stationName":"Burntisland","lat":56.057133,"long":-3.233214,"crsCode":"BTS"},{"stationName":"Burscough Bridge","lat":53.60519,"long":-2.841758,"crsCode":"BCB"},{"stationName":"Burscough Junction","lat":53.598011,"long":-2.840105,"crsCode":"BCJ"},{"stationName":"Bursledon","lat":50.882858,"long":-1.304835,"crsCode":"BUO"},{"stationName":"Burton Joyce","lat":52.984047,"long":-1.040698,"crsCode":"BUJ"},{"stationName":"Burton-On-Trent","lat":52.805798,"long":-1.64246,"crsCode":"BUT"},{"stationName":"Bury St Edmunds","lat":52.253727,"long":0.713355,"crsCode":"BSE"},{"stationName":"Busby","lat":55.780109,"long":-4.262551,"crsCode":"BUS"},{"stationName":"Bush Hill Park","lat":51.642365,"long":-0.06916,"crsCode":"BHK"},{"stationName":"Bushey","lat":51.644669,"long":-0.384806,"crsCode":"BSH"},{"stationName":"Butlers Lane","lat":52.592376,"long":-1.838163,"crsCode":"BUL"},{"stationName":"Buxted","lat":50.990475,"long":0.131651,"crsCode":"BXD"},{"stationName":"Buxton","lat":53.26058,"long":-1.913086,"crsCode":"BUX"},{"stationName":"Byfleet & New Haw","lat":51.349869,"long":-0.480714,"crsCode":"BFN"},{"stationName":"Bynea","lat":51.67276,"long":-4.098396,"crsCode":"BYE"},{"stationName":"Cadoxton","lat":51.412422,"long":-3.248087,"crsCode":"CAD"},{"stationName":"Caergwrle","lat":53.107922,"long":-3.033069,"crsCode":"CGW"},{"stationName":"Caerphilly","lat":51.571903,"long":-3.217805,"crsCode":"CPH"},{"stationName":"Caersws","lat":52.516262,"long":-3.43387,"crsCode":"CWS"},{"stationName":"Caldercruix","lat":55.88791,"long":-3.88978,"crsCode":"CAC"},{"stationName":"Caldicot","lat":51.58474,"long":-2.760598,"crsCode":"CDT"},{"stationName":"Caledonian Road & Barnsbury","lat":51.543301,"long":-0.115177,"crsCode":"CIR"},{"stationName":"Calstock","lat":50.497487,"long":-4.208665,"crsCode":"CSK"},{"stationName":"Cam & Dursley","lat":51.71701,"long":-2.366194,"crsCode":"CDU"},{"stationName":"Camberley","lat":51.335911,"long":-0.745328,"crsCode":"CAM"},{"stationName":"Camborne","lat":50.210392,"long":-5.297921,"crsCode":"CBN"},{"stationName":"Cambridge","lat":52.194519,"long":0.137584,"crsCode":"CBG"},{"stationName":"Cambridge Heath","lat":51.53157,"long":-0.057997,"crsCode":"CBH"},{"stationName":"Cambridge North","lat":52.223333,"long":0.157778,"crsCode":"CMB"},{"stationName":"Cambuslang","lat":55.819458,"long":-4.173839,"crsCode":"CBL"},{"stationName":"Camden Road","lat":51.541889,"long":-0.139764,"crsCode":"CMD"},{"stationName":"Camelon","lat":56.006775,"long":-3.817015,"crsCode":"CMO"},{"stationName":"Canada Water","lat":51.49823,"long":-0.05076,"crsCode":"ZCW"},{"stationName":"Canary Wharf","lat":51.5061,"long":-0.01578,"crsCode":"CWX"},{"stationName":"Canley","lat":52.399418,"long":-1.547232,"crsCode":"CNL"},{"stationName":"Cannock","lat":52.686768,"long":-2.022158,"crsCode":"CAO"},{"stationName":"Canonbury","lat":51.548747,"long":-0.091614,"crsCode":"CNN"},{"stationName":"Canterbury East","lat":51.275261,"long":1.075434,"crsCode":"CBE"},{"stationName":"Canterbury West","lat":51.284279,"long":1.074608,"crsCode":"CBW"},{"stationName":"Cantley","lat":52.578907,"long":1.512899,"crsCode":"CNY"},{"stationName":"Capenhurst","lat":53.260155,"long":-2.942908,"crsCode":"CPU"},{"stationName":"Carbis Bay","lat":50.19746,"long":-5.463815,"crsCode":"CBB"},{"stationName":"Cardenden","lat":56.141308,"long":-3.261651,"crsCode":"CDD"},{"stationName":"Cardiff Bay","lat":51.466324,"long":-3.166049,"crsCode":"CDB"},{"stationName":"Cardiff Central","lat":51.475193,"long":-3.177794,"crsCode":"CDF"},{"stationName":"Cardiff International Airport","lat":51.396667,"long":-3.343333,"crsCode":"XCF","iataAirportCode":"CWL"},{"stationName":"Cardiff Queen Street","lat":51.482464,"long":-3.170782,"crsCode":"CDQ"},{"stationName":"Cardonald","lat":55.853252,"long":-4.340297,"crsCode":"CDO"},{"stationName":"Cardross","lat":55.960163,"long":-4.652782,"crsCode":"CDR"},{"stationName":"Carfin","lat":55.806938,"long":-3.956112,"crsCode":"CRF"},{"stationName":"Cark","lat":54.177513,"long":-2.972746,"crsCode":"CAK"},{"stationName":"Carlisle","lat":54.890675,"long":-2.933833,"crsCode":"CAR"},{"stationName":"Carlton","lat":52.964573,"long":-1.078357,"crsCode":"CTO"},{"stationName":"Carluke","lat":55.730408,"long":-3.848761,"crsCode":"CLU"},{"stationName":"Carmarthen","lat":51.853233,"long":-4.305732,"crsCode":"CMN"},{"stationName":"Carmyle","lat":55.834053,"long":-4.161873,"crsCode":"CML"},{"stationName":"Carnforth","lat":54.129688,"long":-2.771244,"crsCode":"CNF"},{"stationName":"Carnoustie","lat":56.500618,"long":-2.7066,"crsCode":"CAN"},{"stationName":"Carntyne","lat":55.854412,"long":-4.17898,"crsCode":"CAY"},{"stationName":"Carpenders Park","lat":51.627885,"long":-0.385578,"crsCode":"CPK"},{"stationName":"Carrbridge","lat":57.279873,"long":-3.829541,"crsCode":"CAG"},{"stationName":"Carshalton","lat":51.367859,"long":-0.16693,"crsCode":"CSH"},{"stationName":"Carshalton Beeches","lat":51.357117,"long":-0.17023,"crsCode":"CSB"},{"stationName":"Carstairs","lat":55.69075,"long":-3.668696,"crsCode":"CRS"},{"stationName":"Cartsdyke","lat":55.942261,"long":-4.731633,"crsCode":"CDY"},{"stationName":"Castle Bar Park","lat":51.522865,"long":-0.331575,"crsCode":"CBP"},{"stationName":"Castle Cary","lat":51.099583,"long":-2.522683,"crsCode":"CLC"},{"stationName":"Castleford","lat":53.724171,"long":-1.355852,"crsCode":"CFD"},{"stationName":"Castleton","lat":53.591804,"long":-2.178125,"crsCode":"CAS"},{"stationName":"Castleton Moor","lat":54.467297,"long":-0.947707,"crsCode":"CSM"},{"stationName":"Caterham","lat":51.282803,"long":-0.078539,"crsCode":"CAT"},{"stationName":"Catford Bridge","lat":51.444725,"long":-0.027142,"crsCode":"CFB"},{"stationName":"Catford","lat":51.444706,"long":-0.025701,"crsCode":"CTF"},{"stationName":"Cathays","lat":51.488678,"long":-3.178149,"crsCode":"CYS"},{"stationName":"Cathcart","lat":55.817879,"long":-4.261552,"crsCode":"CCT"},{"stationName":"Cattal","lat":53.997515,"long":-1.319808,"crsCode":"CTL"},{"stationName":"Causeland","lat":50.405525,"long":-4.466937,"crsCode":"CAU"},{"stationName":"Cefn-Y-Bedd","lat":53.098511,"long":-3.031972,"crsCode":"CYB"},{"stationName":"Chadwell Heath","lat":51.567905,"long":0.128263,"crsCode":"CTH"},{"stationName":"Chafford Hundred","lat":51.502792,"long":0.290938,"crsCode":"CFH"},{"stationName":"Chalfont & Latimer","lat":51.66835,"long":-0.560646,"crsCode":"CFO"},{"stationName":"Chalkwell","lat":51.53883,"long":0.6706,"crsCode":"CHW"},{"stationName":"Chandlers Ford","lat":50.983,"long":-1.3845,"crsCode":"CFR"},{"stationName":"Chapel-En-Le-Frith","lat":53.312405,"long":-1.918915,"crsCode":"CEF"},{"stationName":"Chapeltown","lat":53.464046,"long":-1.466743,"crsCode":"CLN"},{"stationName":"Chapleton","lat":51.01577,"long":-4.024398,"crsCode":"CPN"},{"stationName":"Chappel & Wakes Colne","lat":51.925312,"long":0.758944,"crsCode":"CWC"},{"stationName":"Charing","lat":51.208649,"long":0.790337,"crsCode":"CHG"},{"stationName":"Charing Cross (Glasgow)","lat":55.865345,"long":-4.270689,"crsCode":"CHC"},{"stationName":"Charlbury","lat":51.872929,"long":-1.490133,"crsCode":"CBY"},{"stationName":"Charlton","lat":51.486904,"long":0.030852,"crsCode":"CTN"},{"stationName":"Chartham","lat":51.256958,"long":1.018303,"crsCode":"CRT"},{"stationName":"Chassen Road","lat":53.44605,"long":-2.368171,"crsCode":"CSR"},{"stationName":"Chatelherault","lat":55.76521,"long":-4.00466,"crsCode":"CTE"},{"stationName":"Chatham","lat":51.381161,"long":0.520559,"crsCode":"CTM"},{"stationName":"Chathill","lat":55.536404,"long":-1.706846,"crsCode":"CHT"},{"stationName":"Cheadle Hulme","lat":53.375956,"long":-2.188125,"crsCode":"CHU"},{"stationName":"Cheam","lat":51.35601,"long":-0.2148,"crsCode":"CHE"},{"stationName":"Cheddington","lat":51.857908,"long":-0.662168,"crsCode":"CED"},{"stationName":"Chelford","lat":53.270744,"long":-2.280375,"crsCode":"CEL"},{"stationName":"Chelmsford","lat":51.736595,"long":0.469316,"crsCode":"CHM"},{"stationName":"Chelsfield","lat":51.35603,"long":0.108373,"crsCode":"CLD"},{"stationName":"Cheltenham Spa","lat":51.896465,"long":-2.100245,"crsCode":"CNM"},{"stationName":"Chepstow","lat":51.640137,"long":-2.67193,"crsCode":"CPW"},{"stationName":"Cherry Tree","lat":53.732868,"long":-2.518401,"crsCode":"CYT"},{"stationName":"Chertsey","lat":51.387108,"long":-0.509667,"crsCode":"CHY"},{"stationName":"Cheshunt","lat":51.702747,"long":-0.023171,"crsCode":"CHN"},{"stationName":"Chessington North","lat":51.364483,"long":-0.300661,"crsCode":"CSN"},{"stationName":"Chessington South","lat":51.356491,"long":-0.308144,"crsCode":"CSS"},{"stationName":"Chester","lat":53.196815,"long":-2.880152,"crsCode":"CTR"},{"stationName":"Chester Road","lat":52.535575,"long":-1.832582,"crsCode":"CRD"},{"stationName":"Chesterfield","lat":53.238209,"long":-1.42011,"crsCode":"CHD"},{"stationName":"Chester-Le-Street","lat":54.854885,"long":-1.577847,"crsCode":"CLS"},{"stationName":"Chestfield & Swalecliffe","lat":51.360004,"long":1.068182,"crsCode":"CSW"},{"stationName":"Chetnole","lat":50.866428,"long":-2.574072,"crsCode":"CNO"},{"stationName":"Chichester","lat":50.831821,"long":-0.783032,"crsCode":"CCH"},{"stationName":"Chilham","lat":51.244549,"long":0.975937,"crsCode":"CIL"},{"stationName":"Chilworth","lat":51.21553,"long":-0.523795,"crsCode":"CHL"},{"stationName":"Chingford","lat":51.63385,"long":0.009955,"crsCode":"CHI"},{"stationName":"Chinley","lat":53.340275,"long":-1.9444,"crsCode":"CLY"},{"stationName":"Chippenham","lat":51.462162,"long":-2.115123,"crsCode":"CPM"},{"stationName":"Chipstead","lat":51.309444,"long":-0.169259,"crsCode":"CHP"},{"stationName":"Chirk","lat":52.932793,"long":-3.066708,"crsCode":"CRK"},{"stationName":"Chislehurst","lat":51.405506,"long":0.057437,"crsCode":"CIT"},{"stationName":"Chiswick","lat":51.4809,"long":-0.267538,"crsCode":"CHK"},{"stationName":"Cholsey","lat":51.570135,"long":-1.157942,"crsCode":"CHO"},{"stationName":"Chorley","lat":53.652428,"long":-2.626693,"crsCode":"CRL"},{"stationName":"Chorleywood","lat":51.654188,"long":-0.51846,"crsCode":"CLW"},{"stationName":"Christchurch","lat":50.738148,"long":-1.784566,"crsCode":"CHR"},{"stationName":"Christs Hospital","lat":51.050629,"long":-0.363538,"crsCode":"CHH"},{"stationName":"Church & Oswaldtwistle","lat":53.750431,"long":-2.391216,"crsCode":"CTW"},{"stationName":"Church Fenton","lat":53.827671,"long":-1.226652,"crsCode":"CHF"},{"stationName":"Church Stretton","lat":52.536606,"long":-2.803485,"crsCode":"CTT"},{"stationName":"Cilmeri","lat":52.150936,"long":-3.45719,"crsCode":"CIM"},{"stationName":"City Thameslink","lat":51.514336,"long":-0.103412,"crsCode":"CTK"},{"stationName":"Clacton-On-Sea","lat":51.793953,"long":1.154134,"crsCode":"CLT"},{"stationName":"Clandon","lat":51.263832,"long":-0.503622,"crsCode":"CLA"},{"stationName":"Clapham (Nth Yorkshire)","lat":54.105392,"long":-2.409858,"crsCode":"CPY"},{"stationName":"Clapham High Street","lat":51.46534,"long":-0.1328,"crsCode":"CLP"},{"stationName":"Clapham Junction","lat":51.464134,"long":-0.170281,"crsCode":"CLJ"},{"stationName":"Clapton","lat":51.56213,"long":-0.056685,"crsCode":"CPT"},{"stationName":"Clarbeston Road","lat":51.852207,"long":-4.88221,"crsCode":"CLR"},{"stationName":"Clarkston","lat":55.789753,"long":-4.275865,"crsCode":"CKS"},{"stationName":"Claverdon","lat":52.276424,"long":-1.696566,"crsCode":"CLV"},{"stationName":"Claygate","lat":51.360664,"long":-0.348207,"crsCode":"CLG"},{"stationName":"Cleethorpes","lat":53.56316,"long":-0.029584,"crsCode":"CLE"},{"stationName":"Cleland","lat":55.804073,"long":-3.909695,"crsCode":"CEA"},{"stationName":"Clifton","lat":53.522503,"long":-2.314811,"crsCode":"CLI"},{"stationName":"Clifton Down","lat":51.46423,"long":-2.611761,"crsCode":"CFN"},{"stationName":"Clitheroe","lat":53.87345,"long":-2.394365,"crsCode":"CLH"},{"stationName":"Clock House","lat":51.408096,"long":-0.041668,"crsCode":"CLK"},{"stationName":"Clunderwen","lat":51.8405,"long":-4.731915,"crsCode":"CUW"},{"stationName":"Clydebank","lat":55.900562,"long":-4.403927,"crsCode":"CYK"},{"stationName":"Coatbridge Central","lat":55.863213,"long":-4.032443,"crsCode":"CBC"},{"stationName":"Coatbridge Sunnyside","lat":55.866886,"long":-4.027847,"crsCode":"CBS"},{"stationName":"Coatdyke","lat":55.864567,"long":-4.005343,"crsCode":"COA"},{"stationName":"Cobham & Stoke Dabernon","lat":51.318077,"long":-0.389917,"crsCode":"CSD"},{"stationName":"Codsall","lat":52.627262,"long":-2.200891,"crsCode":"CSL"},{"stationName":"Cogan","lat":51.445396,"long":-3.189974,"crsCode":"CGN"},{"stationName":"Colchester","lat":51.900478,"long":0.894085,"crsCode":"COL"},{"stationName":"Colchester Town","lat":51.886505,"long":0.904055,"crsCode":"CET"},{"stationName":"Coleshill Parkway","lat":52.5164,"long":-1.7081,"crsCode":"CEH"},{"stationName":"Collingham","lat":53.144047,"long":-0.748588,"crsCode":"CLM"},{"stationName":"Collington","lat":50.839272,"long":0.457142,"crsCode":"CLL"},{"stationName":"Colne","lat":53.85478,"long":-2.181087,"crsCode":"CNE"},{"stationName":"Colwall","lat":52.080284,"long":-2.357489,"crsCode":"CWL"},{"stationName":"Colwyn Bay","lat":53.296349,"long":-3.725462,"crsCode":"CWB"},{"stationName":"Combe","lat":51.832277,"long":-1.392817,"crsCode":"CME"},{"stationName":"Commondale","lat":54.481018,"long":-0.97514,"crsCode":"COM"},{"stationName":"Congleton","lat":53.157637,"long":-2.192754,"crsCode":"CNG"},{"stationName":"Conisbrough","lat":53.48885,"long":-1.234333,"crsCode":"CNS"},{"stationName":"Connel Ferry","lat":56.451981,"long":-5.384973,"crsCode":"CON"},{"stationName":"Conon Bridge","lat":57.5617,"long":-4.4404,"crsCode":"CBD"},{"stationName":"Cononley","lat":53.917351,"long":-2.010631,"crsCode":"CEY"},{"stationName":"Conway Park","lat":53.386219,"long":-3.026886,"crsCode":"CNP"},{"stationName":"Conwy","lat":53.280093,"long":-3.83046,"crsCode":"CNW"},{"stationName":"Cooden Beach","lat":50.83271,"long":0.426969,"crsCode":"COB"},{"stationName":"Cookham","lat":51.556873,"long":-0.721948,"crsCode":"COO"},{"stationName":"Cooksbridge","lat":50.903938,"long":-0.010272,"crsCode":"CBR"},{"stationName":"Coombe","lat":50.44479,"long":-4.481655,"crsCode":"COE"},{"stationName":"Copplestone","lat":50.814228,"long":-3.751624,"crsCode":"COP"},{"stationName":"Corbridge","lat":54.966152,"long":-2.017141,"crsCode":"CRB"},{"stationName":"Corby","lat":52.489196,"long":-0.687944,"crsCode":"COR"},{"stationName":"Corfe Castle","lat":50.6383,"long":-2.0551,"crsCode":"CFC"},{"stationName":"Corkerhill","lat":55.836494,"long":-4.323322,"crsCode":"CKH"},{"stationName":"Corkickle","lat":54.541657,"long":-3.582155,"crsCode":"CKL"},{"stationName":"Corpach","lat":56.842724,"long":-5.121662,"crsCode":"CPA"},{"stationName":"Corrour","lat":56.760181,"long":-4.690966,"crsCode":"CRR"},{"stationName":"Coryton","lat":51.520512,"long":-3.230858,"crsCode":"COY"},{"stationName":"Coseley","lat":52.545738,"long":-2.086051,"crsCode":"CSY"},{"stationName":"Cosford","lat":52.645031,"long":-2.301479,"crsCode":"COS"},{"stationName":"Cosham","lat":50.841644,"long":-1.068259,"crsCode":"CSA"},{"stationName":"Cottingham","lat":53.781826,"long":-0.406402,"crsCode":"CGM"},{"stationName":"Cottingley","lat":53.767437,"long":-1.588832,"crsCode":"COT"},{"stationName":"Coulsdon South","lat":51.315231,"long":-0.13746,"crsCode":"CDS"},{"stationName":"Coulsdon Town","lat":51.32243,"long":-0.13429,"crsCode":"CDN"},{"stationName":"Coventry","lat":52.400787,"long":-1.513466,"crsCode":"COV"},{"stationName":"Coventry Arena","lat":52.447032,"long":-1.494559,"crsCode":"CAA"},{"stationName":"Cowden","lat":51.155441,"long":0.110653,"crsCode":"CWN"},{"stationName":"Cowdenbeath","lat":56.111679,"long":-3.344314,"crsCode":"COW"},{"stationName":"Cradley Heath","lat":52.469177,"long":-2.08976,"crsCode":"CRA"},{"stationName":"Craigendoran","lat":55.99485,"long":-4.711291,"crsCode":"CGD"},{"stationName":"Cramlington","lat":55.088604,"long":-1.598887,"crsCode":"CRM"},{"stationName":"Cranbrook (Devon)","lat":50.7501,"long":-3.4206,"crsCode":"CBK"},{"stationName":"Craven Arms","lat":52.441975,"long":-2.837077,"crsCode":"CRV"},{"stationName":"Crawley","lat":51.111874,"long":-0.187083,"crsCode":"CRW"},{"stationName":"Crayford","lat":51.448273,"long":0.178826,"crsCode":"CRY"},{"stationName":"Crediton","lat":50.783375,"long":-3.646912,"crsCode":"CDI"},{"stationName":"Cressing","lat":51.852028,"long":0.580186,"crsCode":"CES"},{"stationName":"Cressington","lat":53.3588,"long":-2.91172,"crsCode":"CSG"},{"stationName":"Creswell (Derbys)","lat":53.264008,"long":-1.215865,"crsCode":"CWD"},{"stationName":"Crewe","lat":53.089607,"long":-2.432987,"crsCode":"CRE"},{"stationName":"Crewkerne","lat":50.873337,"long":-2.778815,"crsCode":"CKN"},{"stationName":"Crews Hill","lat":51.684334,"long":-0.106441,"crsCode":"CWH"},{"stationName":"Crianlarich","lat":56.389652,"long":-4.617778,"crsCode":"CNR"},{"stationName":"Criccieth","lat":52.918312,"long":-4.236972,"crsCode":"CCC"},{"stationName":"Cricklewood","lat":51.559227,"long":-0.214071,"crsCode":"CRI"},{"stationName":"Croftfoot","lat":55.818455,"long":-4.229643,"crsCode":"CFF"},{"stationName":"Crofton Park","lat":51.454777,"long":-0.03678,"crsCode":"CFT"},{"stationName":"Cromer","lat":52.930595,"long":1.292778,"crsCode":"CMR"},{"stationName":"Cromford","lat":53.112915,"long":-1.548788,"crsCode":"CMF"},{"stationName":"Crookston","lat":55.84388,"long":-4.36049,"crsCode":"CKT"},{"stationName":"Cross Gates","lat":53.804638,"long":-1.451798,"crsCode":"CRG"},{"stationName":"Crossflatts","lat":53.858829,"long":-1.844886,"crsCode":"CFL"},{"stationName":"Crosshill","lat":55.833225,"long":-4.257648,"crsCode":"COI"},{"stationName":"Crosskeys","lat":51.621,"long":-3.1261,"crsCode":"CKY"},{"stationName":"Crossmyloof","lat":55.833626,"long":-4.284813,"crsCode":"CMY"},{"stationName":"Croston","lat":53.66756,"long":-2.777717,"crsCode":"CSO"},{"stationName":"Crouch Hill","lat":51.571205,"long":-0.116907,"crsCode":"CRH"},{"stationName":"Crowborough","lat":51.046085,"long":0.188422,"crsCode":"COH"},{"stationName":"Crowhurst","lat":50.888702,"long":0.500984,"crsCode":"CWU"},{"stationName":"Crowle","lat":53.589725,"long":-0.817042,"crsCode":"CWE"},{"stationName":"Crowthorne","lat":51.366356,"long":-0.819194,"crsCode":"CRN"},{"stationName":"Croy","lat":55.955734,"long":-4.035697,"crsCode":"CRO"},{"stationName":"Crystal Palace","lat":51.417603,"long":-0.072899,"crsCode":"CYP"},{"stationName":"Cuddington","lat":53.23991,"long":-2.599329,"crsCode":"CUD"},{"stationName":"Cuffley","lat":51.708675,"long":-0.109761,"crsCode":"CUF"},{"stationName":"Culham","lat":51.653773,"long":-1.236445,"crsCode":"CUM"},{"stationName":"Culrain","lat":57.919842,"long":-4.405676,"crsCode":"CUA"},{"stationName":"Cumbernauld","lat":55.941326,"long":-3.982089,"crsCode":"CUB"},{"stationName":"Cupar","lat":56.317043,"long":-3.008772,"crsCode":"CUP"},{"stationName":"Curriehill","lat":55.901703,"long":-3.317849,"crsCode":"CUH"},{"stationName":"Custom House","lat":51.509639,"long":0.025894,"crsCode":"CUS"},{"stationName":"Cuxton","lat":51.374298,"long":0.462693,"crsCode":"CUX"},{"stationName":"Cwmbach","lat":51.701885,"long":-3.413774,"crsCode":"CMH"},{"stationName":"Cwmbran","lat":51.656544,"long":-3.016233,"crsCode":"CWM"},{"stationName":"Cynghordy","lat":52.051689,"long":-3.747095,"crsCode":"CYN"},{"stationName":"Dagenham Dock","lat":51.526237,"long":0.14505,"crsCode":"DDK"},{"stationName":"Dagenham East L.T.","lat":51.532065,"long":0.146965,"crsCode":"ZDE"},{"stationName":"Daisy Hill","lat":53.539389,"long":-2.516212,"crsCode":"DSY"},{"stationName":"Dalgety Bay","lat":56.044178,"long":-3.354809,"crsCode":"DAG"},{"stationName":"Dalmally","lat":56.400272,"long":-4.9832,"crsCode":"DAL"},{"stationName":"Dalmarnock","lat":55.839371,"long":-4.21647,"crsCode":"DAK"},{"stationName":"Dalmeny","lat":55.986362,"long":-3.381645,"crsCode":"DAM"},{"stationName":"Dalmuir","lat":55.911793,"long":-4.427038,"crsCode":"DMR"},{"stationName":"Dalreoch","lat":55.947365,"long":-4.578226,"crsCode":"DLR"},{"stationName":"Dalry","lat":55.705395,"long":-4.711899,"crsCode":"DLY"},{"stationName":"Dalston (Cumbria)","lat":54.846203,"long":-2.988866,"crsCode":"DLS"},{"stationName":"Dalston Junction","lat":51.546139,"long":-0.07544,"crsCode":"DLJ"},{"stationName":"Dalston Kingsland","lat":51.548035,"long":-0.074594,"crsCode":"DLK"},{"stationName":"Dalton","lat":54.15424,"long":-3.179031,"crsCode":"DLT"},{"stationName":"Dalwhinnie","lat":56.934334,"long":-4.246498,"crsCode":"DLW"},{"stationName":"Danby","lat":54.466068,"long":-0.910704,"crsCode":"DNY"},{"stationName":"Danescourt","lat":51.505199,"long":-3.23332,"crsCode":"DCT"},{"stationName":"Danzey","lat":52.324329,"long":-1.819493,"crsCode":"DZY"},{"stationName":"Darlington","lat":54.520462,"long":-1.54732,"crsCode":"DAR"},{"stationName":"Darnall","lat":53.381084,"long":-1.410661,"crsCode":"DAN"},{"stationName":"Darsham","lat":52.272812,"long":1.522343,"crsCode":"DSM"},{"stationName":"Dartford","lat":51.447548,"long":0.217643,"crsCode":"DFD"},{"stationName":"Darton","lat":53.58836,"long":-1.531646,"crsCode":"DRT"},{"stationName":"Darwen","lat":53.69804,"long":-2.464958,"crsCode":"DWN"},{"stationName":"Datchet","lat":51.483303,"long":-0.579978,"crsCode":"DAT"},{"stationName":"Davenport","lat":53.390719,"long":-2.153234,"crsCode":"DVN"},{"stationName":"Dawlish","lat":50.580692,"long":-3.464583,"crsCode":"DWL"},{"stationName":"Dawlish Warren","lat":50.599311,"long":-3.443903,"crsCode":"DWW"},{"stationName":"Deal","lat":51.223129,"long":1.398559,"crsCode":"DEA"},{"stationName":"Dean","lat":51.042629,"long":-1.634802,"crsCode":"DEN"},{"stationName":"Deansgate","lat":53.473961,"long":-2.250061,"crsCode":"DGT"},{"stationName":"Deganwy","lat":53.294739,"long":-3.833424,"crsCode":"DGY"},{"stationName":"Deighton","lat":53.669018,"long":-1.751739,"crsCode":"DHN"},{"stationName":"Delamere","lat":53.228767,"long":-2.666577,"crsCode":"DLM"},{"stationName":"Denby Dale","lat":53.572628,"long":-1.663215,"crsCode":"DBD"},{"stationName":"Denham","lat":51.578495,"long":-0.497633,"crsCode":"DNM"},{"stationName":"Denham Golf Club","lat":51.580544,"long":-0.517774,"crsCode":"DGC"},{"stationName":"Denmark Hill","lat":51.468243,"long":-0.089475,"crsCode":"DMK"},{"stationName":"Dent","lat":54.282597,"long":-2.363987,"crsCode":"DNT"},{"stationName":"Denton","lat":53.457087,"long":-2.131648,"crsCode":"DTN"},{"stationName":"Deptford","lat":51.478897,"long":-0.02711,"crsCode":"DEP"},{"stationName":"Derby","lat":52.916381,"long":-1.462555,"crsCode":"DBY"},{"stationName":"Derby Road","lat":52.04953,"long":1.182332,"crsCode":"DBR"},{"stationName":"Dereham Market Place","lat":52.684896,"long":0.945983,"crsCode":"DEB"},{"stationName":"Devonport","lat":50.378132,"long":-4.171534,"crsCode":"DPT"},{"stationName":"Dewsbury","lat":53.692089,"long":-1.633487,"crsCode":"DEW"},{"stationName":"Didcot Parkway","lat":51.611275,"long":-1.242614,"crsCode":"DID"},{"stationName":"Digby & Sowton","lat":50.716434,"long":-3.474574,"crsCode":"DIG"},{"stationName":"Dilton Marsh","lat":51.248928,"long":-2.207723,"crsCode":"DMH"},{"stationName":"Dinas Powys","lat":51.431614,"long":-3.21839,"crsCode":"DNS"},{"stationName":"Dinas Rhondda","lat":51.617073,"long":-3.437123,"crsCode":"DMG"},{"stationName":"Dingle Road","lat":51.440109,"long":-3.179776,"crsCode":"DGL"},{"stationName":"Dingwall","lat":57.594238,"long":-4.422611,"crsCode":"DIN"},{"stationName":"Dinsdale","lat":54.51474,"long":-1.467051,"crsCode":"DND"},{"stationName":"Dinting","lat":53.449382,"long":-1.970276,"crsCode":"DTG"},{"stationName":"Disley","lat":53.358146,"long":-2.042465,"crsCode":"DSL"},{"stationName":"Diss","lat":52.373096,"long":1.123274,"crsCode":"DIS"},{"stationName":"Dockyard","lat":50.382553,"long":-4.175957,"crsCode":"DOC"},{"stationName":"Dodworth","lat":53.545216,"long":-1.530617,"crsCode":"DOD"},{"stationName":"Dolau","lat":52.295223,"long":-3.263955,"crsCode":"DOL"},{"stationName":"Doleham","lat":50.918686,"long":0.610732,"crsCode":"DLH"},{"stationName":"Dolgarrog","lat":53.186123,"long":-3.822808,"crsCode":"DLG"},{"stationName":"Dolwyddelan","lat":53.052105,"long":-3.884288,"crsCode":"DWD"},{"stationName":"Doncaster","lat":53.521469,"long":-1.140225,"crsCode":"DON"},{"stationName":"Dorchester South","lat":50.708752,"long":-2.437593,"crsCode":"DCH"},{"stationName":"Dorchester West","lat":50.710526,"long":-2.443274,"crsCode":"DCW"},{"stationName":"Dore & Totley","lat":53.327625,"long":-1.514997,"crsCode":"DOR"},{"stationName":"Dorking Deepdene","lat":51.238918,"long":-0.323921,"crsCode":"DPD"},{"stationName":"Dorking","lat":51.241615,"long":-0.323822,"crsCode":"DKG"},{"stationName":"Dorking West","lat":51.236443,"long":-0.339762,"crsCode":"DKT"},{"stationName":"Dormans","lat":51.15567,"long":-0.005183,"crsCode":"DMS"},{"stationName":"Dorridge","lat":52.371861,"long":-1.753209,"crsCode":"DDG"},{"stationName":"Dove Holes","lat":53.300005,"long":-1.890678,"crsCode":"DVH"},{"stationName":"Dover Priory","lat":51.125988,"long":1.304227,"crsCode":"DVP"},{"stationName":"Dovercourt","lat":51.938892,"long":1.280724,"crsCode":"DVC"},{"stationName":"Dovey Junction","lat":52.564133,"long":-3.925273,"crsCode":"DVY"},{"stationName":"Downham Market","lat":52.60471,"long":0.365751,"crsCode":"DOW"},{"stationName":"Drayton Green","lat":51.516326,"long":-0.330089,"crsCode":"DRG"},{"stationName":"Drayton Manor","lat":52.61095,"long":-1.71345,"crsCode":"DRY"},{"stationName":"Drayton Park","lat":51.552124,"long":-0.104723,"crsCode":"DYP"},{"stationName":"Drem","lat":56.005981,"long":-2.785752,"crsCode":"DRM"},{"stationName":"Driffield","lat":54.001526,"long":-0.434627,"crsCode":"DRF"},{"stationName":"Drigg","lat":54.376968,"long":-3.444066,"crsCode":"DRI"},{"stationName":"Droitwich Spa","lat":52.26862,"long":-2.158239,"crsCode":"DTW"},{"stationName":"Dronfield","lat":53.301357,"long":-1.468768,"crsCode":"DRO"},{"stationName":"Drumchapel","lat":55.904926,"long":-4.364204,"crsCode":"DMC"},{"stationName":"Drumfrochar","lat":55.941292,"long":-4.774822,"crsCode":"DFR"},{"stationName":"Drumgelloch","lat":55.867233,"long":-3.95114,"crsCode":"DRU"},{"stationName":"Drumry","lat":55.904495,"long":-4.386583,"crsCode":"DMY"},{"stationName":"Duddeston","lat":52.488018,"long":-1.871842,"crsCode":"DUD"},{"stationName":"Dudley Port","lat":52.524517,"long":-2.049401,"crsCode":"DDP"},{"stationName":"Duffield","lat":52.987713,"long":-1.486035,"crsCode":"DFI"},{"stationName":"Duirinish","lat":57.319847,"long":-5.692103,"crsCode":"DRN"},{"stationName":"Duke Street","lat":55.859207,"long":-4.212814,"crsCode":"DST"},{"stationName":"Dullingham","lat":52.200943,"long":0.366197,"crsCode":"DUL"},{"stationName":"Dumbarton Central","lat":55.946705,"long":-4.56697,"crsCode":"DBC"},{"stationName":"Dumbarton East","lat":55.942478,"long":-4.55387,"crsCode":"DBE"},{"stationName":"Dumbreck","lat":55.841255,"long":-4.309216,"crsCode":"DUM"},{"stationName":"Dumfries","lat":55.072395,"long":-3.605261,"crsCode":"DMF"},{"stationName":"Dumpton Park","lat":51.345566,"long":1.426291,"crsCode":"DMP"},{"stationName":"Dunbar","lat":55.998428,"long":-2.514625,"crsCode":"DUN"},{"stationName":"Dunblane","lat":56.186001,"long":-3.967296,"crsCode":"DBL"},{"stationName":"Duncraig","lat":57.336727,"long":-5.637282,"crsCode":"DCG"},{"stationName":"Dundee","lat":56.456669,"long":-2.970576,"crsCode":"DEE"},{"stationName":"Dunfermline Queen Margaret","lat":56.080706,"long":-3.42164,"crsCode":"DFL"},{"stationName":"Dunfermline City","lat":56.068233,"long":-3.452033,"crsCode":"DFE"},{"stationName":"Dunkeld & Birnam","lat":56.557301,"long":-3.578097,"crsCode":"DKD"},{"stationName":"Dunlop","lat":55.711926,"long":-4.532435,"crsCode":"DNL"},{"stationName":"Dunoon","lat":55.94681,"long":-4.92252,"crsCode":"DUO"},{"stationName":"Dunrobin Castle","lat":57.986111,"long":-3.946595,"crsCode":"DNO"},{"stationName":"Duns","lat":55.778865,"long":-2.342808,"crsCode":"DUU"},{"stationName":"Dunston","lat":54.952164,"long":-1.648648,"crsCode":"DOT"},{"stationName":"Dunton Green","lat":51.296425,"long":0.171616,"crsCode":"DNG"},{"stationName":"Durham","lat":54.779408,"long":-1.581746,"crsCode":"DHM"},{"stationName":"Durrington-On-Sea","lat":50.817463,"long":-0.411463,"crsCode":"DUR"},{"stationName":"Dyce","lat":57.205002,"long":-2.191978,"crsCode":"DYC"},{"stationName":"Dyffryn Ardudwy","lat":52.78857,"long":-4.104242,"crsCode":"DYF"},{"stationName":"Eaglescliffe","lat":54.529449,"long":-1.349426,"crsCode":"EAG"},{"stationName":"Ealing Broadway","lat":51.51466,"long":-0.300843,"crsCode":"EAL"},{"stationName":"Ealing Common","lat":51.51,"long":-0.28805,"crsCode":"ZEC"},{"stationName":"Earlestown","lat":53.451139,"long":-2.637674,"crsCode":"ERL"},{"stationName":"Earley","lat":51.441051,"long":-0.917989,"crsCode":"EAR"},{"stationName":"Earl's Court L.T.","lat":51.49138,"long":-0.1936,"crsCode":"ZET"},{"stationName":"Earlsfield","lat":51.441929,"long":-0.188423,"crsCode":"EAD"},{"stationName":"Earlston","lat":55.639072,"long":-2.68,"crsCode":"EAS"},{"stationName":"Earlswood (Surrey)","lat":51.227631,"long":-0.171078,"crsCode":"ELD"},{"stationName":"Earlswood (West Midlands)","lat":52.366638,"long":-1.861907,"crsCode":"EWD"},{"stationName":"East Boldon","lat":54.9468,"long":-1.420767,"crsCode":"EBL"},{"stationName":"East Cowes","lat":50.75873,"long":-1.29107,"crsCode":"ECW"},{"stationName":"East Croydon","lat":51.375679,"long":-0.093335,"crsCode":"ECR"},{"stationName":"East Didsbury","lat":53.410206,"long":-2.22111,"crsCode":"EDY"},{"stationName":"East Dulwich","lat":51.460911,"long":-0.081151,"crsCode":"EDW"},{"stationName":"East Farleigh","lat":51.255112,"long":0.48498,"crsCode":"EFL"},{"stationName":"East Garforth","lat":53.791622,"long":-1.363933,"crsCode":"EGF"},{"stationName":"East Grinstead","lat":51.126213,"long":-0.017887,"crsCode":"EGR"},{"stationName":"East Kilbride","lat":55.765388,"long":-4.18199,"crsCode":"EKL"},{"stationName":"East Linton","lat":55.9856,"long":-2.6579,"crsCode":"ELT"},{"stationName":"East Malling","lat":51.285748,"long":0.439308,"crsCode":"EML"},{"stationName":"East Midlands Parkway","lat":52.862,"long":-1.263,"crsCode":"EMD"},{"stationName":"East Tilbury","lat":51.485065,"long":0.412479,"crsCode":"ETL"},{"stationName":"East Worthing","lat":50.822071,"long":-0.354517,"crsCode":"EWR"},{"stationName":"Eastbourne","lat":50.769085,"long":0.281847,"crsCode":"EBN"},{"stationName":"Eastbrook","lat":51.437126,"long":-3.207031,"crsCode":"EBK"},{"stationName":"Easterhouse","lat":55.860157,"long":-4.107389,"crsCode":"EST"},{"stationName":"Eastham Rake","lat":53.307532,"long":-2.9812,"crsCode":"ERA"},{"stationName":"Eastleigh","lat":50.968559,"long":-1.350563,"crsCode":"ESL"},{"stationName":"Eastrington","lat":53.75481,"long":-0.786612,"crsCode":"EGN"},{"stationName":"Ebbsfleet International","lat":51.443009,"long":0.320887,"crsCode":"EBD"},{"stationName":"Ebbw Vale Parkway","lat":51.7573,"long":-3.1965,"crsCode":"EBV"},{"stationName":"Ebbw Vale Town","lat":51.782007,"long":-3.205996,"crsCode":"EBB"},{"stationName":"Eccles","lat":53.485443,"long":-2.333014,"crsCode":"ECC"},{"stationName":"Eccles Road","lat":52.470585,"long":0.969656,"crsCode":"ECS"},{"stationName":"Eccleston Park","lat":53.430665,"long":-2.780555,"crsCode":"ECL"},{"stationName":"Edale","lat":53.36477,"long":-1.817395,"crsCode":"EDL"},{"stationName":"Eden Park","lat":51.390762,"long":-0.026587,"crsCode":"EDN"},{"stationName":"Edenbridge","lat":51.208508,"long":0.060099,"crsCode":"EBR"},{"stationName":"Edenbridge Town","lat":51.200287,"long":0.06689,"crsCode":"EBT"},{"stationName":"Edge Hill","lat":53.402663,"long":-2.946986,"crsCode":"EDG"},{"stationName":"Edinburgh Gateway","lat":55.941,"long":-3.32,"crsCode":"EGY"},{"stationName":"Edinburgh Park","lat":55.927615,"long":-3.307829,"crsCode":"EDP"},{"stationName":"Edinburgh Waverley","lat":55.952442,"long":-3.188236,"crsCode":"EDB"},{"stationName":"Edmonton Green","lat":51.623802,"long":-0.059665,"crsCode":"EDR"},{"stationName":"Effingham Junction","lat":51.291504,"long":-0.419536,"crsCode":"EFF"},{"stationName":"Eggesford","lat":50.887848,"long":-3.875235,"crsCode":"EGG"},{"stationName":"Egham","lat":51.428925,"long":-0.545701,"crsCode":"EGH"},{"stationName":"Egton","lat":54.437679,"long":-0.761896,"crsCode":"EGT"},{"stationName":"Elephant & Castle","lat":51.494469,"long":-0.098462,"crsCode":"EPH"},{"stationName":"Elgin","lat":57.64299,"long":-3.31163,"crsCode":"ELG"},{"stationName":"Ellesmere Port","lat":53.282097,"long":-2.895403,"crsCode":"ELP"},{"stationName":"Elmers End","lat":51.398335,"long":-0.049263,"crsCode":"ELE"},{"stationName":"Elmstead Woods","lat":51.417435,"long":0.043594,"crsCode":"ESD"},{"stationName":"Elmswell","lat":52.238201,"long":0.911625,"crsCode":"ESW"},{"stationName":"Elsecar","lat":53.498924,"long":-1.428617,"crsCode":"ELR"},{"stationName":"Elsenham","lat":51.92038,"long":0.22779,"crsCode":"ESM"},{"stationName":"Elstree & Borehamwood","lat":51.652836,"long":-0.279779,"crsCode":"ELS"},{"stationName":"Eltham","lat":51.455101,"long":0.0496,"crsCode":"ELW"},{"stationName":"Elton & Orston","lat":52.951843,"long":-0.855362,"crsCode":"ELO"},{"stationName":"Ely","lat":52.390846,"long":0.266105,"crsCode":"ELY"},{"stationName":"Emerson Park","lat":51.56889,"long":0.220658,"crsCode":"EMP"},{"stationName":"Emsworth","lat":50.851326,"long":-0.938784,"crsCode":"EMS"},{"stationName":"Energlyn & Churchill Park","lat":51.5838,"long":-3.2287,"crsCode":"ECP"},{"stationName":"Enfield Chase","lat":51.652607,"long":-0.090404,"crsCode":"ENC"},{"stationName":"Enfield Lock","lat":51.671379,"long":-0.028875,"crsCode":"ENL"},{"stationName":"Enfield Town","lat":51.651524,"long":-0.078891,"crsCode":"ENF"},{"stationName":"Entwistle","lat":53.655591,"long":-2.413983,"crsCode":"ENT"},{"stationName":"Epsom Downs","lat":51.321365,"long":-0.243411,"crsCode":"EPD"},{"stationName":"Epsom","lat":51.334339,"long":-0.268756,"crsCode":"EPS"},{"stationName":"Erdington","lat":52.528435,"long":-1.839297,"crsCode":"ERD"},{"stationName":"Eridge","lat":51.089024,"long":0.200452,"crsCode":"ERI"},{"stationName":"Erith","lat":51.481621,"long":0.174651,"crsCode":"ERH"},{"stationName":"Esher","lat":51.379642,"long":-0.354714,"crsCode":"ESH"},{"stationName":"Eskbank","lat":55.88956,"long":-3.07845,"crsCode":"EKB"},{"stationName":"Essex Road","lat":51.540302,"long":-0.096552,"crsCode":"EXR"},{"stationName":"Etchingham","lat":51.010479,"long":0.441935,"crsCode":"ETC"},{"stationName":"Euxton Balshaw Lane","lat":53.670071,"long":-2.675045,"crsCode":"EBA"},{"stationName":"Evesham","lat":52.098793,"long":-1.947413,"crsCode":"EVE"},{"stationName":"Ewell East","lat":51.345612,"long":-0.24106,"crsCode":"EWE"},{"stationName":"Ewell West","lat":51.349445,"long":-0.256711,"crsCode":"EWW"},{"stationName":"Exeter Central","lat":50.726471,"long":-3.532973,"crsCode":"EXC"},{"stationName":"Exeter St Davids","lat":50.729019,"long":-3.544387,"crsCode":"EXD"},{"stationName":"Exeter St Thomas","lat":50.716529,"long":-3.538759,"crsCode":"EXT"},{"stationName":"Exhibition Centre","lat":55.860619,"long":-4.283207,"crsCode":"EXG"},{"stationName":"Exmouth","lat":50.620937,"long":-3.415035,"crsCode":"EXM"},{"stationName":"Exton","lat":50.668255,"long":-3.443337,"crsCode":"EXN"},{"stationName":"Eynsford","lat":51.362377,"long":0.203465,"crsCode":"EYN"},{"stationName":"Fairbourne","lat":52.696018,"long":-4.049464,"crsCode":"FRB"},{"stationName":"Fairfield","lat":53.471215,"long":-2.14581,"crsCode":"FRF"},{"stationName":"Fairlie","lat":55.752514,"long":-4.853834,"crsCode":"FRL"},{"stationName":"Fairwater","lat":51.491714,"long":-3.232963,"crsCode":"FRW"},{"stationName":"Falconwood","lat":51.459087,"long":0.078571,"crsCode":"FCN"},{"stationName":"Falkirk Grahamston","lat":56.002735,"long":-3.786359,"crsCode":"FKG"},{"stationName":"Falkirk High","lat":55.991863,"long":-3.792276,"crsCode":"FKK"},{"stationName":"Falls of Cruachan","lat":56.386242,"long":-5.114992,"crsCode":"FOC"},{"stationName":"Falmer","lat":50.862064,"long":-0.087364,"crsCode":"FMR"},{"stationName":"Falmouth Docks","lat":50.15075,"long":-5.0559,"crsCode":"FAL"},{"stationName":"Falmouth Town","lat":50.148392,"long":-5.065443,"crsCode":"FMT"},{"stationName":"Fareham","lat":50.853352,"long":-1.19162,"crsCode":"FRM"},{"stationName":"Farnborough Main","lat":51.296471,"long":-0.756436,"crsCode":"FNB"},{"stationName":"Farnborough North","lat":51.301723,"long":-0.743385,"crsCode":"FNN"},{"stationName":"Farncombe","lat":51.197639,"long":-0.604522,"crsCode":"FNC"},{"stationName":"Farnham","lat":51.211422,"long":-0.793093,"crsCode":"FNH"},{"stationName":"Farningham Road","lat":51.401337,"long":0.235533,"crsCode":"FNR"},{"stationName":"Farnworth","lat":53.549999,"long":-2.387857,"crsCode":"FNW"},{"stationName":"Farringdon","lat":51.520071,"long":-0.104665,"crsCode":"ZFD"},{"stationName":"Fauldhouse","lat":55.822163,"long":-3.719006,"crsCode":"FLD"},{"stationName":"Faversham","lat":51.311436,"long":0.891278,"crsCode":"FAV"},{"stationName":"Faygate","lat":51.095943,"long":-0.263403,"crsCode":"FGT"},{"stationName":"Fazakerley","lat":53.469063,"long":-2.936729,"crsCode":"FAZ"},{"stationName":"Fearn","lat":57.777828,"long":-3.994245,"crsCode":"FRN"},{"stationName":"Featherstone","lat":53.679253,"long":-1.359562,"crsCode":"FEA"},{"stationName":"Felixstowe","lat":51.967449,"long":1.352707,"crsCode":"FLX"},{"stationName":"Fellgate","lat":54.957,"long":-1.4878,"crsCode":"FEG"},{"stationName":"Feltham","lat":51.447845,"long":-0.40983,"crsCode":"FEL"},{"stationName":"Feniton","lat":50.787022,"long":-3.285259,"crsCode":"FNT"},{"stationName":"Fenny Stratford","lat":52.000103,"long":-0.716636,"crsCode":"FEN"},{"stationName":"Fernhill","lat":51.685932,"long":-3.394469,"crsCode":"FER"},{"stationName":"Ferriby","lat":53.716625,"long":-0.508878,"crsCode":"FRY"},{"stationName":"Ferryside","lat":51.76833,"long":-4.36952,"crsCode":"FYS"},{"stationName":"Ffairfach","lat":51.87244,"long":-3.992916,"crsCode":"FFA"},{"stationName":"Filey","lat":54.209946,"long":-0.293351,"crsCode":"FIL"},{"stationName":"Filton Abbey Wood","lat":51.509438,"long":-2.561933,"crsCode":"FIT"},{"stationName":"Finchley Road & Frognal","lat":51.550198,"long":-0.183324,"crsCode":"FNY"},{"stationName":"Finsbury Park","lat":51.564724,"long":-0.105642,"crsCode":"FPK"},{"stationName":"Finstock","lat":51.85305,"long":-1.47003,"crsCode":"FIN"},{"stationName":"Fishbourne (Sussex)","lat":50.839352,"long":-0.815495,"crsCode":"FSB"},{"stationName":"Fishersgate","lat":50.834469,"long":-0.219161,"crsCode":"FSG"},{"stationName":"Fishguard & Goodwick","lat":52.0035,"long":-4.9948,"crsCode":"FGW"},{"stationName":"Fishguard Harbour","lat":52.011505,"long":-4.985713,"crsCode":"FGH"},{"stationName":"Fiskerton","lat":53.060253,"long":-0.912181,"crsCode":"FSK"},{"stationName":"Fitzwilliam","lat":53.632587,"long":-1.375391,"crsCode":"FZW"},{"stationName":"Five Ways","lat":52.470078,"long":-1.913116,"crsCode":"FWY"},{"stationName":"Fleet","lat":51.290947,"long":-0.831169,"crsCode":"FLE"},{"stationName":"Flimby","lat":54.689815,"long":-3.520544,"crsCode":"FLM"},{"stationName":"Flint","lat":53.249516,"long":-3.13302,"crsCode":"FLN"},{"stationName":"Flitwick","lat":52.003457,"long":-0.4952,"crsCode":"FLT"},{"stationName":"Flixton","lat":53.443746,"long":-2.383878,"crsCode":"FLI"},{"stationName":"Flowery Field","lat":53.461737,"long":-2.080965,"crsCode":"FLF"},{"stationName":"Folkestone Central","lat":51.082985,"long":1.168331,"crsCode":"FKC"},{"stationName":"Folkestone West","lat":51.085163,"long":1.154209,"crsCode":"FKW"},{"stationName":"Ford","lat":50.829506,"long":-0.578611,"crsCode":"FOD"},{"stationName":"Forest Gate","lat":51.549976,"long":0.023568,"crsCode":"FOG"},{"stationName":"Forest Hill","lat":51.438869,"long":-0.053297,"crsCode":"FOH"},{"stationName":"Formby","lat":53.553796,"long":-3.070706,"crsCode":"FBY"},{"stationName":"Forres","lat":57.609661,"long":-3.62847,"crsCode":"FOR"},{"stationName":"Forsinard","lat":58.356998,"long":-3.896903,"crsCode":"FRS"},{"stationName":"Fort Matilda","lat":55.958809,"long":-4.7953,"crsCode":"FTM"},{"stationName":"Fort William","lat":56.820625,"long":-5.106721,"crsCode":"FTW"},{"stationName":"Four Oaks","lat":52.579662,"long":-1.8273,"crsCode":"FOK"},{"stationName":"Foxfield","lat":54.259041,"long":-3.215796,"crsCode":"FOX"},{"stationName":"Foxton","lat":52.119526,"long":0.056572,"crsCode":"FXN"},{"stationName":"Frant","lat":51.104321,"long":0.294034,"crsCode":"FRT"},{"stationName":"Fratton","lat":50.795818,"long":-1.073422,"crsCode":"FTN"},{"stationName":"Freshfield","lat":53.566494,"long":-3.072014,"crsCode":"FRE"},{"stationName":"Freshford","lat":51.342251,"long":-2.30146,"crsCode":"FFD"},{"stationName":"Frimley","lat":51.311653,"long":-0.747426,"crsCode":"FML"},{"stationName":"Frinton-On-Sea","lat":51.838314,"long":1.242907,"crsCode":"FRI"},{"stationName":"Frizinghall","lat":53.820957,"long":-1.769072,"crsCode":"FZH"},{"stationName":"Frodsham","lat":53.295853,"long":-2.723145,"crsCode":"FRD"},{"stationName":"Frome","lat":51.227131,"long":-2.309302,"crsCode":"FRO"},{"stationName":"Fulwell","lat":51.433525,"long":-0.349893,"crsCode":"FLW"},{"stationName":"Furness Vale","lat":53.348385,"long":-1.989445,"crsCode":"FNV"},{"stationName":"Furze Platt","lat":51.533082,"long":-0.728467,"crsCode":"FZP"},{"stationName":"Gainsborough Central","lat":53.399574,"long":-0.769674,"crsCode":"GNB"},{"stationName":"Gainsborough Lea Road","lat":53.386078,"long":-0.768558,"crsCode":"GBL"},{"stationName":"Galashiels","lat":55.610426,"long":-2.809693,"crsCode":"GAL"},{"stationName":"Garelochhead","lat":56.079449,"long":-4.826544,"crsCode":"GCH"},{"stationName":"Garforth","lat":53.796211,"long":-1.382083,"crsCode":"GRF"},{"stationName":"Gargrave","lat":53.97842,"long":-2.105171,"crsCode":"GGV"},{"stationName":"Garrowhill","lat":55.855286,"long":-4.129497,"crsCode":"GAR"},{"stationName":"Garscadden","lat":55.88784,"long":-4.364757,"crsCode":"GRS"},{"stationName":"Garsdale","lat":54.32135,"long":-2.325891,"crsCode":"GSD"},{"stationName":"Garston (Hertfordshire)","lat":51.686685,"long":-0.381689,"crsCode":"GSN"},{"stationName":"Garswood","lat":53.488518,"long":-2.672149,"crsCode":"GSW"},{"stationName":"Gartcosh","lat":55.885,"long":-4.078,"crsCode":"GRH"},{"stationName":"Garth","lat":52.133816,"long":-3.531142,"crsCode":"GTH"},{"stationName":"Garth (Mid Glamorgan)","lat":51.596413,"long":-3.641504,"crsCode":"GMG"},{"stationName":"Garve","lat":57.613129,"long":-4.688429,"crsCode":"GVE"},{"stationName":"Gathurst","lat":53.559399,"long":-2.694418,"crsCode":"GST"},{"stationName":"Gatley","lat":53.394001,"long":-2.230052,"crsCode":"GTY"},{"stationName":"Gatwick Airport","lat":51.156425,"long":-0.161022,"crsCode":"GTW","iataAirportCode":"LGW"},{"stationName":"Georgemas Junction","lat":58.513721,"long":-3.45212,"crsCode":"GGJ"},{"stationName":"Gerrards Cross","lat":51.588883,"long":-0.555367,"crsCode":"GER"},{"stationName":"Gidea Park","lat":51.581772,"long":0.205411,"crsCode":"GDP"},{"stationName":"Giffnock","lat":55.804688,"long":-4.294289,"crsCode":"GFN"},{"stationName":"Giggleswick","lat":54.061775,"long":-2.302644,"crsCode":"GIG"},{"stationName":"Gilberdyke","lat":53.747955,"long":-0.732223,"crsCode":"GBD"},{"stationName":"Gilfach Fargoed","lat":51.684208,"long":-3.226604,"crsCode":"GFF"},{"stationName":"Gillingham (Dorset)","lat":51.033886,"long":-2.272361,"crsCode":"GIL"},{"stationName":"Gillingham (Kent)","lat":51.386829,"long":0.549618,"crsCode":"GLM"},{"stationName":"Gilshochill","lat":55.897295,"long":-4.28201,"crsCode":"GSC"},{"stationName":"Gipsy Hill","lat":51.424984,"long":-0.084096,"crsCode":"GIP"},{"stationName":"Girvan","lat":55.246517,"long":-4.848927,"crsCode":"GIR"},{"stationName":"Glaisdale","lat":54.439796,"long":-0.794221,"crsCode":"GLS"},{"stationName":"Glan Conwy","lat":53.266644,"long":-3.796892,"crsCode":"GCW"},{"stationName":"Glasgow Central","lat":55.860157,"long":-4.259208,"crsCode":"GLC"},{"stationName":"Glasgow Queen Street","lat":55.863003,"long":-4.251385,"crsCode":"GLQ"},{"stationName":"Glasshoughton","lat":53.70884,"long":-1.34247,"crsCode":"GLH"},{"stationName":"Glazebrook","lat":53.428076,"long":-2.461152,"crsCode":"GLZ"},{"stationName":"Gleneagles","lat":56.274902,"long":-3.7312,"crsCode":"GLE"},{"stationName":"Glenfinnan","lat":56.872753,"long":-5.449219,"crsCode":"GLF"},{"stationName":"Glengarnock","lat":55.738579,"long":-4.674364,"crsCode":"GLG"},{"stationName":"Glenrothes with Thornton","lat":56.162224,"long":-3.143189,"crsCode":"GLT"},{"stationName":"Glossop","lat":53.444503,"long":-1.949403,"crsCode":"GLO"},{"stationName":"Gloucester","lat":51.864799,"long":-2.238141,"crsCode":"GCR"},{"stationName":"Glynde","lat":50.859398,"long":0.06883,"crsCode":"GLY"},{"stationName":"Gobowen","lat":52.893501,"long":-3.036019,"crsCode":"GOB"},{"stationName":"Godalming","lat":51.186115,"long":-0.619175,"crsCode":"GOD"},{"stationName":"Godley","lat":53.448151,"long":-2.049649,"crsCode":"GDL"},{"stationName":"Godstone","lat":51.217606,"long":-0.051188,"crsCode":"GDN"},{"stationName":"Goldthorpe","lat":53.533379,"long":-1.313488,"crsCode":"GOE"},{"stationName":"Golf Street","lat":56.497852,"long":-2.719541,"crsCode":"GOF"},{"stationName":"Golspie","lat":57.971092,"long":-3.98806,"crsCode":"GOL"},{"stationName":"Gomshall","lat":51.218964,"long":-0.442065,"crsCode":"GOM"},{"stationName":"Goodmayes","lat":51.565502,"long":0.112277,"crsCode":"GMY"},{"stationName":"Goole","lat":53.704426,"long":-0.872907,"crsCode":"GOO"},{"stationName":"Goostrey","lat":53.222634,"long":-2.32628,"crsCode":"GTR"},{"stationName":"Gordon Hill","lat":51.66346,"long":-0.094289,"crsCode":"GDH"},{"stationName":"Gorebridge","lat":55.836732,"long":-3.046099,"crsCode":"GBG"},{"stationName":"Goring & Streatley","lat":51.521428,"long":-1.133051,"crsCode":"GOR"},{"stationName":"Goring-By-Sea","lat":50.817753,"long":-0.432751,"crsCode":"GBS"},{"stationName":"Gorton","lat":53.468712,"long":-2.167182,"crsCode":"GTO"},{"stationName":"Gospel Oak","lat":51.555546,"long":-0.150737,"crsCode":"GPO"},{"stationName":"Gourock","lat":55.962788,"long":-4.818021,"crsCode":"GRK"},{"stationName":"Gourock Pier","lat":55.9628,"long":-4.81475,"crsCode":"GXX"},{"stationName":"Gowerton","lat":51.648701,"long":-4.035124,"crsCode":"GWN"},{"stationName":"Goxhill","lat":53.676613,"long":-0.337699,"crsCode":"GOX"},{"stationName":"Grange Park","lat":51.642811,"long":-0.096599,"crsCode":"GPK"},{"stationName":"Grange-Over-Sands","lat":54.195282,"long":-2.902752,"crsCode":"GOS"},{"stationName":"Grangetown","lat":51.466984,"long":-3.189097,"crsCode":"GTN"},{"stationName":"Grantham","lat":52.906448,"long":-0.642438,"crsCode":"GRA"},{"stationName":"Grateley","lat":51.170269,"long":-1.619497,"crsCode":"GRT"},{"stationName":"Gravelly Hill","lat":52.514969,"long":-1.852612,"crsCode":"GVH"},{"stationName":"Gravesend","lat":51.441029,"long":0.36699,"crsCode":"GRV"},{"stationName":"Grays","lat":51.476089,"long":0.322719,"crsCode":"GRY"},{"stationName":"Great Ayton","lat":54.4902,"long":-1.113845,"crsCode":"GTA"},{"stationName":"Great Bentley","lat":51.85207,"long":1.065258,"crsCode":"GRB"},{"stationName":"Great Chesterford","lat":52.060402,"long":0.1939,"crsCode":"GRC"},{"stationName":"Great Coates","lat":53.575542,"long":-0.128701,"crsCode":"GCT"},{"stationName":"Great Malvern","lat":52.109165,"long":-2.318289,"crsCode":"GMV"},{"stationName":"Great Missenden","lat":51.703304,"long":-0.709132,"crsCode":"GMN"},{"stationName":"Great Yarmouth","lat":52.612122,"long":1.720949,"crsCode":"GYM"},{"stationName":"Green Lane","lat":53.38271,"long":-3.016281,"crsCode":"GNL"},{"stationName":"Green Road","lat":54.244748,"long":-3.245602,"crsCode":"GNR"},{"stationName":"Greenbank","lat":53.251664,"long":-2.533185,"crsCode":"GBK"},{"stationName":"Greenfaulds","lat":55.932064,"long":-3.999232,"crsCode":"GRL"},{"stationName":"Greenfield","lat":53.538835,"long":-2.014189,"crsCode":"GNF"},{"stationName":"Greenford","lat":51.54235,"long":-0.3463,"crsCode":"GFD"},{"stationName":"Greenhithe for Bluewater","lat":51.450855,"long":0.279694,"crsCode":"GNH"},{"stationName":"Greenock Central","lat":55.945385,"long":-4.752692,"crsCode":"GKC"},{"stationName":"Greenock West","lat":55.94772,"long":-4.768866,"crsCode":"GKW"},{"stationName":"Greenwich","lat":51.477779,"long":-0.014198,"crsCode":"GNW"},{"stationName":"Gretna Green","lat":55.001934,"long":-3.064608,"crsCode":"GEA"},{"stationName":"Grimsby Docks","lat":53.574699,"long":-0.075873,"crsCode":"GMD"},{"stationName":"Grimsby Town","lat":53.564091,"long":-0.086922,"crsCode":"GMB"},{"stationName":"Grindleford","lat":53.30555,"long":-1.62629,"crsCode":"GRN"},{"stationName":"Grosmont","lat":54.436394,"long":-0.724937,"crsCode":"GMT"},{"stationName":"Grove Park","lat":51.430389,"long":0.022597,"crsCode":"GRP"},{"stationName":"Guide Bridge","lat":53.474171,"long":-2.112961,"crsCode":"GUI"},{"stationName":"Guildford","lat":51.236912,"long":-0.580409,"crsCode":"GLD"},{"stationName":"Guiseley","lat":53.875668,"long":-1.715537,"crsCode":"GSY"},{"stationName":"Gunnersbury","lat":51.491814,"long":-0.275766,"crsCode":"GUN"},{"stationName":"Gunnislake","lat":50.515992,"long":-4.219437,"crsCode":"GSL"},{"stationName":"Gunton","lat":52.866077,"long":1.348821,"crsCode":"GNT"},{"stationName":"Gwersyllt","lat":53.072559,"long":-3.017913,"crsCode":"GWE"},{"stationName":"Gypsy Lane","lat":54.532902,"long":-1.179375,"crsCode":"GYP"},{"stationName":"Habrough","lat":53.605507,"long":-0.267936,"crsCode":"HAB"},{"stationName":"Hackbridge","lat":51.378437,"long":-0.15358,"crsCode":"HCB"},{"stationName":"Hackney Central","lat":51.546825,"long":-0.055896,"crsCode":"HKC"},{"stationName":"Hackney Downs","lat":51.548695,"long":-0.060144,"crsCode":"HAC"},{"stationName":"Hackney Wick","lat":51.543625,"long":-0.025759,"crsCode":"HKW"},{"stationName":"Haddenham & Thame Parkway","lat":51.770788,"long":-0.942121,"crsCode":"HDM"},{"stationName":"Haddiscoe","lat":52.528835,"long":1.622451,"crsCode":"HAD"},{"stationName":"Hadfield","lat":53.460873,"long":-1.965429,"crsCode":"HDF"},{"stationName":"Hadley Wood","lat":51.668365,"long":-0.176519,"crsCode":"HDW"},{"stationName":"Hag Fold","lat":53.533442,"long":-2.493744,"crsCode":"HGF"},{"stationName":"Haggerston","lat":51.53912,"long":-0.07642,"crsCode":"HGG"},{"stationName":"Hagley","lat":52.422375,"long":-2.147018,"crsCode":"HAG"},{"stationName":"Hairmyres","lat":55.762012,"long":-4.220047,"crsCode":"HMY"},{"stationName":"Hale","lat":53.378669,"long":-2.347383,"crsCode":"HAL"},{"stationName":"Halesworth","lat":52.346157,"long":1.506141,"crsCode":"HAS"},{"stationName":"Halewood","lat":53.364466,"long":-2.830149,"crsCode":"HED"},{"stationName":"Halifax","lat":53.720417,"long":-1.854486,"crsCode":"HFX"},{"stationName":"Hall Green","lat":52.436745,"long":-1.845513,"crsCode":"HLG"},{"stationName":"Hall i' th' Wood","lat":53.597546,"long":-2.413986,"crsCode":"HID"},{"stationName":"Hall Road","lat":53.497442,"long":-3.049607,"crsCode":"HLR"},{"stationName":"Halling","lat":51.352169,"long":0.445711,"crsCode":"HAI"},{"stationName":"Haltwhistle","lat":54.967972,"long":-2.462321,"crsCode":"HWH"},{"stationName":"Ham Street","lat":51.067684,"long":0.854653,"crsCode":"HMT"},{"stationName":"Hamble","lat":50.871311,"long":-1.329173,"crsCode":"HME"},{"stationName":"Hamilton Central","lat":55.773239,"long":-4.038928,"crsCode":"HNC"},{"stationName":"Hamilton West","lat":55.779232,"long":-4.056781,"crsCode":"HNW"},{"stationName":"Hammerton","lat":53.996105,"long":-1.283026,"crsCode":"HMM"},{"stationName":"Hampden Park","lat":50.796124,"long":0.278906,"crsCode":"HMD"},{"stationName":"Hampstead Heath","lat":51.555779,"long":-0.165159,"crsCode":"HDH"},{"stationName":"Hampton","lat":51.41607,"long":-0.37199,"crsCode":"HMP"},{"stationName":"Hampton Court","lat":51.401947,"long":-0.342412,"crsCode":"HMC"},{"stationName":"Hampton Wick","lat":51.41412,"long":-0.313201,"crsCode":"HMW"},{"stationName":"Hampton-In-Arden","lat":52.428375,"long":-1.699934,"crsCode":"HIA"},{"stationName":"Hamstead","lat":52.530718,"long":-1.92838,"crsCode":"HSD"},{"stationName":"Hamworthy","lat":50.725754,"long":-2.018381,"crsCode":"HAM"},{"stationName":"Hanborough","lat":51.825172,"long":-1.373471,"crsCode":"HND"},{"stationName":"Handforth","lat":53.34639,"long":-2.213263,"crsCode":"HTH"},{"stationName":"Hanwell","lat":51.511604,"long":-0.338432,"crsCode":"HAN"},{"stationName":"Hapton","lat":53.781393,"long":-2.318115,"crsCode":"HPN"},{"stationName":"Harlech","lat":52.861309,"long":-4.109248,"crsCode":"HRL"},{"stationName":"Harlesden","lat":51.536518,"long":-0.258214,"crsCode":"HDN"},{"stationName":"Harling Road","lat":52.454128,"long":0.908188,"crsCode":"HRD"},{"stationName":"Harlington","lat":51.962012,"long":-0.495715,"crsCode":"HLN"},{"stationName":"Harlow Mill","lat":51.790878,"long":0.131497,"crsCode":"HWM"},{"stationName":"Harlow Town","lat":51.781639,"long":0.094804,"crsCode":"HWN"},{"stationName":"Harold Wood","lat":51.592907,"long":0.234819,"crsCode":"HRO"},{"stationName":"Harpenden","lat":51.814831,"long":-0.351961,"crsCode":"HPD"},{"stationName":"Harrietsham","lat":51.244652,"long":0.673574,"crsCode":"HRM"},{"stationName":"Harringay Green Lanes","lat":51.577336,"long":-0.098104,"crsCode":"HRY"},{"stationName":"Harringay","lat":51.577305,"long":-0.105115,"crsCode":"HGY"},{"stationName":"Harrington","lat":54.613551,"long":-3.565573,"crsCode":"HRR"},{"stationName":"Harrogate","lat":53.991959,"long":-1.537814,"crsCode":"HGT"},{"stationName":"Harrow & Wealdstone","lat":51.591576,"long":-0.334067,"crsCode":"HRW"},{"stationName":"Harrow-on-the-Hill","lat":51.57931,"long":-0.336628,"crsCode":"HOH"},{"stationName":"Hartford","lat":53.241721,"long":-2.553978,"crsCode":"HTF"},{"stationName":"Hartlebury","lat":52.335049,"long":-2.22158,"crsCode":"HBY"},{"stationName":"Hartlepool","lat":54.686771,"long":-1.2073,"crsCode":"HPL"},{"stationName":"Hartwood","lat":55.810532,"long":-3.839792,"crsCode":"HTW"},{"stationName":"Harwich International","lat":51.947701,"long":1.255167,"crsCode":"HPQ"},{"stationName":"Harwich Town","lat":51.944157,"long":1.285469,"crsCode":"HWC"},{"stationName":"Haslemere","lat":51.089237,"long":-0.719162,"crsCode":"HSL"},{"stationName":"Hassocks","lat":50.923264,"long":-0.146043,"crsCode":"HSK"},{"stationName":"Hastings","lat":50.858288,"long":0.57608,"crsCode":"HGS"},{"stationName":"Hatch End","lat":51.610054,"long":-0.369499,"crsCode":"HTE"},{"stationName":"Hatfield","lat":51.763397,"long":-0.216162,"crsCode":"HAT"},{"stationName":"Hatfield & Stainforth","lat":53.589532,"long":-1.020931,"crsCode":"HFS"},{"stationName":"Hatfield Peverel","lat":51.779785,"long":0.593463,"crsCode":"HAP"},{"stationName":"Hathersage","lat":53.325405,"long":-1.651641,"crsCode":"HSG"},{"stationName":"Hattersley","lat":53.445126,"long":-2.040324,"crsCode":"HTY"},{"stationName":"Hatton","lat":52.295242,"long":-1.672982,"crsCode":"HTN"},{"stationName":"Havant","lat":50.854416,"long":-0.982763,"crsCode":"HAV"},{"stationName":"Havenhouse","lat":53.114548,"long":0.272619,"crsCode":"HVN"},{"stationName":"Haverfordwest","lat":51.802601,"long":-4.960279,"crsCode":"HVF"},{"stationName":"Hawarden Bridge","lat":53.218971,"long":-3.031866,"crsCode":"HWB"},{"stationName":"Hawarden","lat":53.185703,"long":-3.032561,"crsCode":"HWD"},{"stationName":"Hawick","lat":55.425478,"long":-2.7822,"crsCode":"HWK"},{"stationName":"Hawkhead","lat":55.843136,"long":-4.398792,"crsCode":"HKH"},{"stationName":"Haydon Bridge","lat":54.974888,"long":-2.246809,"crsCode":"HDB"},{"stationName":"Haydons Road","lat":51.425755,"long":-0.189073,"crsCode":"HYR"},{"stationName":"Hayes & Harlington","lat":51.502973,"long":-0.420785,"crsCode":"HAY"},{"stationName":"Hayes (Kent)","lat":51.375744,"long":0.010123,"crsCode":"HYS"},{"stationName":"Hayle","lat":50.186176,"long":-5.419558,"crsCode":"HYL"},{"stationName":"Haymarket (Edinburgh)","lat":55.945854,"long":-3.218458,"crsCode":"HYM"},{"stationName":"Haywards Heath","lat":51.00536,"long":-0.105717,"crsCode":"HHE"},{"stationName":"Hazel Grove","lat":53.377415,"long":-2.122121,"crsCode":"HAZ"},{"stationName":"Headbolt Lane","lat":53.492835,"long":-2.878862,"crsCode":"HBL"},{"stationName":"Headcorn","lat":51.165657,"long":0.627507,"crsCode":"HCN"},{"stationName":"Headingley","lat":53.817787,"long":-1.59289,"crsCode":"HDY"},{"stationName":"Headstone Lane","lat":51.60268,"long":-0.356766,"crsCode":"HDL"},{"stationName":"Heald Green","lat":53.369248,"long":-2.236533,"crsCode":"HDG"},{"stationName":"Healing","lat":53.581425,"long":-0.160163,"crsCode":"HLI"},{"stationName":"Heath High Level","lat":51.516518,"long":-3.181737,"crsCode":"HHL"},{"stationName":"Heath Low Level","lat":51.515606,"long":-3.183163,"crsCode":"HLL"},{"stationName":"Heathrow Terminal 4 Rail","lat":51.458214,"long":-0.445447,"crsCode":"HAF","iataAirportCode":"LHR"},{"stationName":"Heathrow Terminal 5 Rail","lat":51.47,"long":-0.48,"crsCode":"HWV","iataAirportCode":"LHR"},{"stationName":"Heathrow Terminals 1-2-3 Rail","lat":51.471,"long":-0.456,"crsCode":"HXX","iataAirportCode":"LHR"},{"stationName":"Heaton Chapel","lat":53.425556,"long":-2.179046,"crsCode":"HTC"},{"stationName":"Hebden Bridge","lat":53.737587,"long":-2.009063,"crsCode":"HBD"},{"stationName":"Heckington","lat":52.977463,"long":-0.29316,"crsCode":"HEC"},{"stationName":"Hedge End","lat":50.927773,"long":-1.297056,"crsCode":"HDE"},{"stationName":"Hednesford","lat":52.709922,"long":-2.00199,"crsCode":"HNF"},{"stationName":"Heighington","lat":54.596977,"long":-1.582071,"crsCode":"HEI"},{"stationName":"Helensburgh Central","lat":56.004261,"long":-4.732803,"crsCode":"HLC"},{"stationName":"Helensburgh Upper","lat":56.013268,"long":-4.73184,"crsCode":"HLU"},{"stationName":"Hellifield","lat":54.010972,"long":-2.227961,"crsCode":"HLD"},{"stationName":"Helmsdale","lat":58.117737,"long":-3.660068,"crsCode":"HMS"},{"stationName":"Helsby","lat":53.275784,"long":-2.770786,"crsCode":"HSB"},{"stationName":"Hemel Hempstead","lat":51.742062,"long":-0.490762,"crsCode":"HML"},{"stationName":"Hendon","lat":51.580057,"long":-0.238652,"crsCode":"HEN"},{"stationName":"Hengoed","lat":51.647362,"long":-3.224162,"crsCode":"HNG"},{"stationName":"Henley-In-Arden","lat":52.291,"long":-1.784444,"crsCode":"HNL"},{"stationName":"Henley-On-Thames","lat":51.534182,"long":-0.900133,"crsCode":"HOT"},{"stationName":"Hensall","lat":53.698357,"long":-1.113905,"crsCode":"HEL"},{"stationName":"Hereford","lat":52.060715,"long":-2.708854,"crsCode":"HFD"},{"stationName":"Herne Bay","lat":51.364059,"long":1.118742,"crsCode":"HNB"},{"stationName":"Herne Hill","lat":51.453148,"long":-0.101624,"crsCode":"HNH"},{"stationName":"Hersham","lat":51.377419,"long":-0.389271,"crsCode":"HER"},{"stationName":"Hertford East","lat":51.799793,"long":-0.072591,"crsCode":"HFE"},{"stationName":"Hertford North","lat":51.798328,"long":-0.092961,"crsCode":"HFN"},{"stationName":"Hessle","lat":53.717567,"long":-0.442169,"crsCode":"HES"},{"stationName":"Heswall","lat":53.32917,"long":-3.073568,"crsCode":"HSW"},{"stationName":"Hever","lat":51.180912,"long":0.094648,"crsCode":"HEV"},{"stationName":"Heworth","lat":54.951862,"long":-1.554976,"crsCode":"HEW"},{"stationName":"Hexham","lat":54.974201,"long":-2.095266,"crsCode":"HEX"},{"stationName":"Heyford","lat":51.91902,"long":-1.299262,"crsCode":"HYD"},{"stationName":"Heysham Port","lat":54.033284,"long":-2.913179,"crsCode":"HHB"},{"stationName":"High Brooms","lat":51.149609,"long":0.277686,"crsCode":"HIB"},{"stationName":"High Street","lat":55.858719,"long":-4.239953,"crsCode":"HST"},{"stationName":"High Wycombe","lat":51.629793,"long":-0.745139,"crsCode":"HWY"},{"stationName":"Higham","lat":51.426376,"long":0.466931,"crsCode":"HGM"},{"stationName":"Highams Park","lat":51.608837,"long":0.000183,"crsCode":"HIP"},{"stationName":"Highbridge & Burnham","lat":51.218098,"long":-2.972192,"crsCode":"HIG"},{"stationName":"Highbury & Islington","lat":51.54668,"long":-0.10206,"crsCode":"HHY"},{"stationName":"Hightown","lat":53.525272,"long":-3.057407,"crsCode":"HTO"},{"stationName":"Hildenborough","lat":51.214451,"long":0.226465,"crsCode":"HLB"},{"stationName":"Hillfoot","lat":55.920143,"long":-4.32032,"crsCode":"HLF"},{"stationName":"Hillington East","lat":55.854778,"long":-4.354768,"crsCode":"HLE"},{"stationName":"Hillington West","lat":55.85537,"long":-4.370778,"crsCode":"HLW"},{"stationName":"Hillside","lat":53.62217,"long":-3.024673,"crsCode":"HIL"},{"stationName":"Hilsea","lat":50.828075,"long":-1.058592,"crsCode":"HLS"},{"stationName":"Hinchley Wood","lat":51.374939,"long":-0.340508,"crsCode":"HYW"},{"stationName":"Hinckley","lat":52.534969,"long":-1.371916,"crsCode":"HNK"},{"stationName":"Hindley","lat":53.542053,"long":-2.574909,"crsCode":"HIN"},{"stationName":"Hinton Admiral","lat":50.752384,"long":-1.713616,"crsCode":"HNA"},{"stationName":"Hitchin","lat":51.952915,"long":-0.262498,"crsCode":"HIT"},{"stationName":"Hither Green","lat":51.452374,"long":-0.000906,"crsCode":"HGR"},{"stationName":"Hockley","lat":51.603825,"long":0.659971,"crsCode":"HOC"},{"stationName":"Hollingbourne","lat":51.265484,"long":0.627465,"crsCode":"HBN"},{"stationName":"Holmes Chapel","lat":53.199131,"long":-2.351063,"crsCode":"HCH"},{"stationName":"Holmwood","lat":51.180428,"long":-0.321752,"crsCode":"HLM"},{"stationName":"Holton Heath","lat":50.711346,"long":-2.077863,"crsCode":"HOL"},{"stationName":"Holyhead","lat":53.307674,"long":-4.631062,"crsCode":"HHD"},{"stationName":"Holytown","lat":55.812943,"long":-3.973967,"crsCode":"HLY"},{"stationName":"Homerton","lat":51.546535,"long":-0.038601,"crsCode":"HMN"},{"stationName":"Honeybourne","lat":52.101383,"long":-1.834989,"crsCode":"HYB"},{"stationName":"Honiton","lat":50.797062,"long":-3.186207,"crsCode":"HON"},{"stationName":"Honley","lat":53.608849,"long":-1.780814,"crsCode":"HOY"},{"stationName":"Honor Oak Park","lat":51.450428,"long":-0.045607,"crsCode":"HPA"},{"stationName":"Hook","lat":51.279587,"long":-0.961933,"crsCode":"HOK"},{"stationName":"Hooton","lat":53.296741,"long":-2.976721,"crsCode":"HOO"},{"stationName":"Hope (Clwyd)","lat":53.117344,"long":-3.03691,"crsCode":"HPE"},{"stationName":"Hope (Derbyshire)","lat":53.346283,"long":-1.729587,"crsCode":"HOP"},{"stationName":"Hopton Heath","lat":52.391964,"long":-2.912536,"crsCode":"HPT"},{"stationName":"Horden","lat":54.763879,"long":-1.307347,"crsCode":"HRE"},{"stationName":"Horley","lat":51.168137,"long":-0.161994,"crsCode":"HOR"},{"stationName":"Hornbeam Park","lat":53.980236,"long":-1.527272,"crsCode":"HBP"},{"stationName":"Hornsey","lat":51.586414,"long":-0.111961,"crsCode":"HRN"},{"stationName":"Horsforth","lat":53.847576,"long":-1.630612,"crsCode":"HRS"},{"stationName":"Horsham","lat":51.066174,"long":-0.318753,"crsCode":"HRH"},{"stationName":"Horsley","lat":51.279114,"long":-0.434304,"crsCode":"HSY"},{"stationName":"Horton in Ribblesdale","lat":54.149379,"long":-2.302054,"crsCode":"HIR"},{"stationName":"Horwich Parkway","lat":53.579948,"long":-2.543712,"crsCode":"HWI"},{"stationName":"Hoscar","lat":53.597366,"long":-2.803828,"crsCode":"HSC"},{"stationName":"Hough Green","lat":53.372378,"long":-2.775056,"crsCode":"HGN"},{"stationName":"Hounslow","lat":51.462471,"long":-0.361808,"crsCode":"HOU"},{"stationName":"Hove","lat":50.835514,"long":-0.170824,"crsCode":"HOV"},{"stationName":"Hoveton & Wroxham","lat":52.715084,"long":1.408312,"crsCode":"HXM"},{"stationName":"How Wood","lat":51.717697,"long":-0.344594,"crsCode":"HWW"},{"stationName":"Howden","lat":53.764526,"long":-0.86068,"crsCode":"HOW"},{"stationName":"Howwood","lat":55.811,"long":-4.56,"crsCode":"HOZ"},{"stationName":"Hoxton","lat":51.53193,"long":-0.07672,"crsCode":"HOX"},{"stationName":"Hoylake","lat":53.390202,"long":-3.178861,"crsCode":"HYK"},{"stationName":"Hubberts Bridge","lat":52.975594,"long":-0.110044,"crsCode":"HBB"},{"stationName":"Hucknall","lat":53.038265,"long":-1.195793,"crsCode":"HKN"},{"stationName":"Huddersfield","lat":53.648407,"long":-1.785142,"crsCode":"HUD"},{"stationName":"Hull","lat":53.744144,"long":-0.345645,"crsCode":"HUL"},{"stationName":"Humphrey Park","lat":53.452321,"long":-2.327363,"crsCode":"HUP"},{"stationName":"Huncoat","lat":53.772144,"long":-2.345903,"crsCode":"HCT"},{"stationName":"Hungerford","lat":51.415344,"long":-1.511056,"crsCode":"HGD"},{"stationName":"Hunmanby","lat":54.17429,"long":-0.314737,"crsCode":"HUB"},{"stationName":"Huntingdon","lat":52.328613,"long":-0.192047,"crsCode":"HUN"},{"stationName":"Huntly","lat":57.444401,"long":-2.776354,"crsCode":"HNT"},{"stationName":"Hunts Cross","lat":53.360644,"long":-2.855716,"crsCode":"HNX"},{"stationName":"Hurst Green","lat":51.244545,"long":0.004397,"crsCode":"HUR"},{"stationName":"Hutton Cranswick","lat":53.955669,"long":-0.43331,"crsCode":"HUT"},{"stationName":"Huyton","lat":53.409813,"long":-2.842991,"crsCode":"HUY"},{"stationName":"Hyde Central","lat":53.451682,"long":-2.085149,"crsCode":"HYC"},{"stationName":"Hyde North","lat":53.464306,"long":-2.085829,"crsCode":"HYT"},{"stationName":"Hykeham","lat":53.194546,"long":-0.600412,"crsCode":"HKM"},{"stationName":"Hyndland","lat":55.879803,"long":-4.314715,"crsCode":"HYN"},{"stationName":"Hythe","lat":51.885281,"long":0.926539,"crsCode":"HYH"},{"stationName":"Ifield","lat":51.115902,"long":-0.215505,"crsCode":"IFI"},{"stationName":"Ilford","lat":51.559078,"long":0.068699,"crsCode":"IFD"},{"stationName":"Ilkeston","lat":52.9794,"long":-1.2949,"crsCode":"ILN"},{"stationName":"Ilkley","lat":53.925304,"long":-1.821799,"crsCode":"ILK"},{"stationName":"Imperial Wharf","lat":51.475134,"long":-0.183026,"crsCode":"IMW"},{"stationName":"Ince","lat":53.538975,"long":-2.611865,"crsCode":"INC"},{"stationName":"Ince & Elton","lat":53.276736,"long":-2.816234,"crsCode":"INE"},{"stationName":"Ingatestone","lat":51.667301,"long":0.384556,"crsCode":"INT"},{"stationName":"Insch","lat":57.33749,"long":-2.616279,"crsCode":"INS"},{"stationName":"Invergordon","lat":57.688587,"long":-4.175563,"crsCode":"IGD"},{"stationName":"Invergowrie","lat":56.456795,"long":-3.057897,"crsCode":"ING"},{"stationName":"Inverkeithing","lat":56.034725,"long":-3.39621,"crsCode":"INK"},{"stationName":"Inverkip","lat":55.905781,"long":-4.873089,"crsCode":"INP"},{"stationName":"Inverness","lat":57.480194,"long":-4.223199,"crsCode":"INV"},{"stationName":"Inverness Airport","lat":57.5335,"long":-4.0552,"crsCode":"IVA","iataAirportCode":"INV"},{"stationName":"Invershin","lat":57.925362,"long":-4.399288,"crsCode":"INH"},{"stationName":"Inverurie","lat":57.286343,"long":-2.373224,"crsCode":"INR"},{"stationName":"Ipswich","lat":52.050552,"long":1.144481,"crsCode":"IPS"},{"stationName":"Irlam","lat":53.434172,"long":-2.432989,"crsCode":"IRL"},{"stationName":"Irvine","lat":55.610916,"long":-4.675196,"crsCode":"IRV"},{"stationName":"Isleworth","lat":51.474709,"long":-0.33689,"crsCode":"ISL"},{"stationName":"Islip","lat":51.82571,"long":-1.238185,"crsCode":"ISP"},{"stationName":"Iver","lat":51.508342,"long":-0.506659,"crsCode":"IVR"},{"stationName":"Ivybridge","lat":50.393515,"long":-3.904954,"crsCode":"IVY"},{"stationName":"James Cook University Hospital","lat":54.5515,"long":-1.2076,"crsCode":"JCH"},{"stationName":"James Street","lat":53.404748,"long":-2.991993,"crsCode":"LVJ"},{"stationName":"Jewellery Quarter","lat":52.489514,"long":-1.913522,"crsCode":"JEQ"},{"stationName":"Johnston","lat":51.756714,"long":-4.996407,"crsCode":"JOH"},{"stationName":"Johnstone","lat":55.834759,"long":-4.50369,"crsCode":"JHN"},{"stationName":"Jordanhill","lat":55.882282,"long":-4.326053,"crsCode":"JOR"},{"stationName":"Kearsley","lat":53.54419,"long":-2.375032,"crsCode":"KSL"},{"stationName":"Kearsney","lat":51.149399,"long":1.271566,"crsCode":"KSN"},{"stationName":"Keighley","lat":53.86787,"long":-1.90112,"crsCode":"KEI"},{"stationName":"Keith","lat":57.550976,"long":-2.954062,"crsCode":"KEH"},{"stationName":"Kelvedon","lat":51.841202,"long":0.701529,"crsCode":"KEL"},{"stationName":"Kelvindale","lat":55.8933,"long":-4.3106,"crsCode":"KVD"},{"stationName":"Kemble","lat":51.67622,"long":-2.023115,"crsCode":"KEM"},{"stationName":"Kempston Hardwick","lat":52.092026,"long":-0.505266,"crsCode":"KMH"},{"stationName":"Kempton Park","lat":51.421757,"long":-0.40929,"crsCode":"KMP"},{"stationName":"Kemsing","lat":51.297684,"long":0.247716,"crsCode":"KMS"},{"stationName":"Kemsley","lat":51.361996,"long":0.733559,"crsCode":"KML"},{"stationName":"Kendal","lat":54.332108,"long":-2.739667,"crsCode":"KEN"},{"stationName":"Kenilworth","lat":52.3429,"long":-1.5726,"crsCode":"KNW"},